Current Unix Time (s),Milliseconds (ms),ADCS State,Attitude Estimation Mode,Control Mode,CubeControl Signal Enabled,CubeControl Motor Enabled,CubeSense Enabled,GPS Receiver Enabled,GPS LNA Power Enabled,Motor Driver Enabled,Magnetometer Deployment Enabled,Configuration Load Error,Orbit Parameters Load Error,CubeSense Communications Error,CubeControl Signal Communications Error,CubeControl Motor Communications Error,CubeSense Node Identification Error,CubeControl Signal Identification Error,CubeControl Motor Identification Error,Magnetometer Deployment Power Error,1s Control Loop Time Exceeded,Magnetometer Range Error,Sun Sensor Overcurrent Detected,Sun Sensor Busy Error,Sun Sensor Detection Error,Wheel Control Error,Nadir Sensor Overcurrent Detected,Nadir Sensor Busy Error,Nadir Sensor Detection Error,Estimation Error,Rate Sensor Range Error,Wheel Speed Range Error,Coarse Sun Sensor Error,Orbit Parameters are Invalid,Configuration is Invalid,Control Mode Change is not allowed,Estimator Change is not allowed,Modelled and measured magnetic field differs in size,SRAM Latch-up Error,SD Card Error,Node Recovery Error,Steady-State Y-Thomson detected,TRIAD and EKF reports same attitude,Sun is Above Local Horizon,Estimated Roll Angle (deg),Estimated Pitch Angle (deg),Estimated Yaw Angle (deg),Estimated X Anglular Rate (deg/s),Estimated Y Anglular Rate (deg/s),Estimated Z Anglular Rate (deg/s),Magnetic Field X (nT),Magnetic Field X (nT),Magnetic Field X (nT),Coarse Sun X,Coarse Sun Y,Coarse Sun Z,X Angular Rate (deg/s),Y Angular Rate (deg/s),Z Angular Rate (deg/s),CSS1,CSS2,CSS3,CSS4,CSS5,CSS6,MagX,MagY,MagZ,
1420070605,437,Enabled,MagnetometerRate,None,True,True,True,False,True,True,False,False,False,False,False,False,False,False,False,False,False,False,False,False,False,True,False,False,False,True,False,False,False,False,False,False,False,False,False,False,False,False,False,False,0,0,0,0,0,0,0,0,0,-0.06640625,0.939208984375,-0.3367919921875,0,0.63,0,35,3,3,99,7,12,0,0,0,
1420070606,441,Enabled,MagnetometerRate,None,True,True,True,False,True,True,False,False,False,False,False,False,False,False,False,False,False,False,False,False,False,True,False,False,False,True,False,False,False,False,False,False,False,False,False,False,False,False,False,False,0,0,0,0,0,0,0,0,0,-0.06634521484375,0.9384765625,-0.3388671875,0,0.54,0,35,3,3,99,7,12,0,0,0,
1420070607,441,Enabled,MagnetometerRate,None,True,True,True,False,True,True,False,False,False,False,False,False,False,False,False,False,False,False,False,False,False,True,False,False,False,True,False,False,False,False,False,False,False,False,False,False,False,False,False,False,0,0,0,0,0,0,0,0,0,-0.06634521484375,0.9384765625,-0.3388671875,0,0.54,0,35,3,3,99,7,12,0,0,0,
1420070608,441,Enabled,MagnetometerRate,None,True,True,True,False,True,True,False,False,False,False,False,False,False,False,False,False,False,False,False,False,False,True,False,False,False,True,False,False,False,False,False,False,False,False,False,False,False,False,False,False,0,0,0,0,0,0,0,0,0,-0.0662841796875,0.937713623046875,-0.340972900390625,0,0.59,0,36,3,3,99,7,11,0,0,0,
1420070609,441,Enabled,MagnetometerRate,None,True,True,True,False,True,True,False,False,False,False,False,False,False,False,False,False,False,False,False,False,False,True,False,False,False,True,False,False,False,False,False,False,False,False,False,False,False,False,False,False,0,0,0,0,0,0,0,0,0,-0.0662841796875,0.937713623046875,-0.340972900390625,0,0.61,0,36,3,3,99,7,11,0,0,0,
1420070610,441,Enabled,MagnetometerRate,None,True,True,True,False,True,True,False,False,False,False,False,False,False,False,False,False,False,False,False,False,False,True,False,False,False,True,False,False,False,False,False,False,False,False,False,False,False,False,False,False,0,0,0,0,0,0,0,0,0,-0.06402587890625,0.936798095703125,-0.3438720703125,0,0.6,0,36,3,3,98,6,11,0,0,0,
1420070611,441,Enabled,MagnetometerRate,None,True,True,True,False,True,True,False,False,False,False,False,False,False,False,False,False,False,False,False,False,False,True,False,False,False,True,False,False,False,False,False,False,False,False,False,False,False,False,False,False,0,0,0,0,0,0,0,0,0,-0.06402587890625,0.936798095703125,-0.3438720703125,0,0.58,0,36,3,3,98,6,10,0,0,0,
1420070612,441,Enabled,MagnetometerRate,None,True,True,True,False,True,True,False,False,False,False,False,False,False,False,False,False,False,False,False,False,False,True,False,False,False,True,False,False,False,False,False,False,False,False,False,False,False,False,False,False,0,0,0,0,0,0,0,0,0,-0.06402587890625,0.936798095703125,-0.3438720703125,0,0.58,0,36,3,3,98,6,10,0,0,0,
1420070613,441,Enabled,MagnetometerRate,None,True,True,True,False,True,True,False,False,False,False,False,False,False,False,False,False,False,False,False,False,False,True,False,False,False,True,False,False,False,False,False,False,False,False,False,False,False,False,False,False,0,0,0,0,0,0,0,0,0,-0.06402587890625,0.936798095703125,-0.3438720703125,0,0.58,0,36,3,3,98,6,9,0,0,0,
1420070614,441,Enabled,MagnetometerRate,None,True,True,True,False,True,True,False,False,False,False,False,False,False,False,False,False,False,False,False,False,False,True,False,False,False,True,False,False,False,False,False,False,False,False,False,False,False,False,False,False,0,0,0,0,0,0,0,0,0,-0.0999755859375,0.925567626953125,-0.3651123046875,0,0.58,0,39,14,8,99,10,12,0,0,0,
1420070615,441,Enabled,MagnetometerRate,None,True,True,True,False,True,True,False,False,False,False,False,False,False,False,False,False,False,False,False,False,False,True,False,False,False,True,False,False,False,False,False,False,False,False,False,False,False,False,False,False,0,0,0,0,0,0,0,0,0,-0.0616455078125,0.93695068359375,-0.34393310546875,0,0.58,0,36,3,3,98,6,9,0,0,0,
1420070616,441,Enabled,MagnetometerRate,None,True,True,True,False,True,True,False,False,False,False,False,False,False,False,False,False,False,False,False,False,False,True,False,False,False,True,False,False,False,False,False,False,False,False,False,False,False,False,False,False,0,0,0,0,0,0,0,0,0,-0.0616455078125,0.93695068359375,-0.34393310546875,0,0.58,0,36,3,3,98,6,8,0,0,0,
1420070617,441,Enabled,MagnetometerRate,None,True,True,True,False,True,True,False,False,False,False,False,False,False,False,False,False,False,False,False,False,False,True,False,False,False,True,False,False,False,False,False,False,False,False,False,False,False,False,False,False,0,0,0,0,0,0,0,0,0,-0.0616455078125,0.93695068359375,-0.34393310546875,0,0.58,0,36,3,3,98,6,8,0,0,0,
1420070618,441,Enabled,MagnetometerRate,None,True,True,True,False,True,True,False,False,False,False,False,False,False,False,False,False,False,False,False,False,False,True,False,False,False,True,False,False,False,False,False,False,False,False,False,False,False,False,False,False,0,0,0,0,0,0,0,0,0,-0.0616455078125,0.93695068359375,-0.34393310546875,0,0.58,0,36,3,3,98,6,8,0,0,0,
1420070619,441,Enabled,MagnetometerRate,None,True,True,True,False,True,True,False,False,False,False,False,False,False,False,False,False,False,False,False,False,False,True,False,False,False,True,False,False,False,False,False,False,False,False,False,False,False,False,False,False,0,0,0,0,0,0,0,0,0,-0.0616455078125,0.93695068359375,-0.34393310546875,0,0.58,0,36,3,3,98,6,7,0,0,0,
1420070620,441,Enabled,MagnetometerRate,None,True,True,True,False,True,True,False,False,False,False,False,False,False,False,False,False,False,False,False,False,False,True,False,False,False,True,False,False,False,False,False,False,False,False,False,False,False,False,False,False,0,0,0,0,0,0,0,0,0,-0.059295654296875,0.93707275390625,-0.343994140625,0,0.58,0,36,3,3,98,6,7,0,0,0,
1420070621,441,Enabled,MagnetometerRate,None,True,True,True,False,True,True,False,False,False,False,False,False,False,False,False,False,False,False,False,False,False,True,False,False,False,True,False,False,False,False,False,False,False,False,False,False,False,False,False,False,0,0,0,0,0,0,0,0,0,-0.059356689453125,0.937835693359375,-0.341888427734375,0,0.57,0,36,3,3,98,6,7,0,0,0,
1420070622,441,Enabled,MagnetometerRate,None,True,True,True,False,True,True,False,False,False,False,False,False,False,False,False,False,False,False,False,False,False,True,False,False,False,True,False,False,False,False,False,False,False,False,False,False,False,False,False,False,0,0,0,0,0,0,0,0,0,-0.059356689453125,0.937835693359375,-0.341888427734375,0,0.57,0,36,3,3,98,6,7,0,0,0,
1420070623,441,Enabled,MagnetometerRate,None,True,True,True,False,True,True,False,False,False,False,False,False,False,False,False,False,False,False,False,False,False,True,False,False,False,True,False,False,False,False,False,False,False,False,False,False,False,False,False,False,0,0,0,0,0,0,0,0,0,-0.05938720703125,0.9385986328125,-0.33978271484375,0,0.57,0,35,3,3,98,6,7,0,0,0,
1420070624,441,Enabled,MagnetometerRate,None,True,True,True,False,True,True,False,False,False,False,False,False,False,False,False,False,False,False,False,False,False,True,False,False,False,True,False,False,False,False,False,False,False,False,False,False,False,False,False,False,0,0,0,0,0,0,0,0,0,-0.056884765625,0.93902587890625,-0.339080810546875,0,0.57,0,35,3,3,99,6,7,0,0,0,
1420070625,441,Enabled,MagnetometerRate,None,True,True,True,False,True,True,False,False,False,False,False,False,False,False,False,False,False,False,False,False,False,True,False,False,False,True,False,False,False,False,False,False,False,False,False,False,False,False,False,False,0,0,0,0,0,0,0,0,0,-0.05694580078125,0.93975830078125,-0.33697509765625,0,0.57,0,35,3,3,99,6,7,0,0,0,
1420070626,441,Enabled,MagnetometerRate,None,True,True,True,False,True,True,False,False,False,False,False,False,False,False,False,False,False,False,False,False,False,True,False,False,False,True,False,False,False,False,False,False,False,False,False,False,False,False,False,False,0,0,0,0,0,0,0,0,0,-0.056976318359375,0.940521240234375,-0.334869384765625,0,0.57,0,35,3,3,99,6,7,0,0,0,
1420070627,441,Enabled,MagnetometerRate,None,True,True,True,False,True,True,False,False,False,False,False,False,False,False,False,False,False,False,False,False,False,True,False,False,False,True,False,False,False,False,False,False,False,False,False,False,False,False,False,False,0,0,0,0,0,0,0,0,0,-0.057037353515625,0.941253662109375,-0.332763671875,0,0.57,0,35,3,3,99,6,7,0,0,0,
1420070628,441,Enabled,MagnetometerRate,None,True,True,True,False,True,True,False,False,False,False,False,False,False,False,False,False,False,False,False,False,False,True,False,False,False,True,False,False,False,False,False,False,False,False,False,False,False,False,False,False,0,0,0,0,0,0,0,0,0,-0.057037353515625,0.941253662109375,-0.332763671875,0,0.57,0,35,3,3,99,6,7,0,0,0,
1420070629,441,Enabled,MagnetometerRate,None,True,True,True,False,True,True,False,False,False,False,False,False,False,False,False,False,False,False,False,False,False,True,False,False,False,True,False,False,False,False,False,False,False,False,False,False,False,False,False,False,0,0,0,0,0,0,0,0,0,-0.054595947265625,0.942413330078125,-0.3299560546875,0,0.57,0,34,3,3,99,5,7,0,0,0,
1420070630,441,Enabled,MagnetometerRate,None,True,True,True,False,True,True,False,False,False,False,False,False,False,False,False,False,False,False,False,False,False,True,False,False,False,True,False,False,False,False,False,False,False,False,False,False,False,False,False,False,0,0,0,0,0,0,0,0,0,-0.05462646484375,0.943145751953125,-0.32781982421875,0,0.57,0,34,3,3,99,5,7,0,0,0,
1420070631,441,Enabled,MagnetometerRate,None,True,True,True,False,True,True,False,False,False,False,False,False,False,False,False,False,False,False,False,False,False,True,False,False,False,True,False,False,False,False,False,False,False,False,False,False,False,False,False,False,0,0,0,0,0,0,0,0,0,-0.054718017578125,0.944610595703125,-0.323577880859375,0,0.57,0,34,3,3,99,5,6,0,0,0,
1420070632,441,Enabled,MagnetometerRate,None,True,True,True,False,True,True,False,False,False,False,False,False,False,False,False,False,False,False,False,False,False,True,False,False,False,True,False,False,False,False,False,False,False,False,False,False,False,False,False,False,0,0,0,0,0,0,0,0,0,-0.05224609375,0.945709228515625,-0.320770263671875,0,0.56,0,33,3,3,99,5,6,0,0,0,
1420070633,441,Enabled,MagnetometerRate,None,True,True,True,False,True,True,False,False,False,False,False,False,False,False,False,False,False,False,False,False,False,True,False,False,False,True,False,False,False,False,False,False,False,False,False,False,False,False,False,False,0,0,0,0,0,0,0,0,0,-0.05230712890625,0.9464111328125,-0.318634033203125,0,0.56,0,33,3,3,99,5,6,0,0,0,
1420070634,441,Enabled,MagnetometerRate,None,True,True,True,False,True,True,False,False,False,False,False,False,False,False,False,False,False,False,False,False,False,True,False,False,False,True,False,False,False,False,False,False,False,False,False,False,False,False,False,False,0,0,0,0,0,0,0,0,0,-0.049957275390625,0.947235107421875,-0.3165283203125,0,0.56,0,33,3,3,99,5,6,0,0,0,
1420070635,441,Enabled,MagnetometerRate,None,True,True,True,False,True,True,False,False,False,False,False,False,False,False,False,False,False,False,False,False,False,True,False,False,False,True,False,False,False,False,False,False,False,False,False,False,False,False,False,False,0,0,0,0,0,0,0,0,0,-0.045196533203125,0.949127197265625,-0.311614990234375,0,0.56,0,32,3,3,99,4,6,0,0,0,
1420070636,441,Enabled,MagnetometerRate,None,True,True,True,False,True,True,False,False,False,False,False,False,False,False,False,False,False,False,False,False,False,True,False,False,False,True,False,False,False,False,False,False,False,False,False,False,False,False,False,False,0,0,0,0,0,0,0,0,0,-0.04046630859375,0.95001220703125,-0.30950927734375,0,0.55,0,32,3,3,99,4,5,0,0,0,
1420070637,441,Enabled,MagnetometerRate,None,True,True,True,False,True,True,False,False,False,False,False,False,False,False,False,False,False,False,False,False,False,True,False,False,False,True,False,False,False,False,False,False,False,False,False,False,False,False,False,False,0,0,0,0,0,0,0,0,0,-0.038055419921875,0.95172119140625,-0.304534912109375,0,0.55,0,32,3,3,100,4,5,0,0,0,
1420070638,441,Enabled,MagnetometerRate,None,True,True,True,False,True,True,False,False,False,False,False,False,False,False,False,False,False,False,False,False,False,True,False,False,False,True,False,False,False,False,False,False,False,False,False,False,False,False,False,False,0,0,0,0,0,0,0,0,0,-0.038116455078125,0.953094482421875,-0.300201416015625,0,0.55,0,31,3,3,100,4,4,0,0,0,
1420070639,441,Enabled,MagnetometerRate,None,True,True,True,False,True,True,False,False,False,False,False,False,False,False,False,False,False,False,False,False,False,True,False,False,False,True,False,False,False,False,False,False,False,False,False,False,False,False,False,False,0,0,0,0,0,0,0,0,0,-0.038177490234375,0.954437255859375,-0.295867919921875,0,0.54,0,31,3,3,100,4,4,0,0,0,
1420070640,441,Enabled,MagnetometerRate,None,True,True,True,False,True,True,False,False,False,False,False,False,False,False,False,False,False,False,False,False,False,True,False,False,False,True,False,False,False,False,False,False,False,False,False,False,False,False,False,False,0,0,0,0,0,0,0,0,0,-0.084197998046875,0.945068359375,-0.3157958984375,0,0.53,0,33,14,8,101,9,10,0,0,0,
1420070641,441,Enabled,MagnetometerRate,None,True,True,True,False,True,True,False,False,False,False,False,False,False,False,False,False,False,False,False,False,False,True,False,False,False,True,False,False,False,False,False,False,False,False,False,False,False,False,False,False,0,0,0,0,0,0,0,0,0,-0.03814697265625,0.9566650390625,-0.288665771484375,0,0.53,0,30,3,3,100,4,4,0,0,0,
1420070642,441,Enabled,MagnetometerRate,None,True,True,True,False,True,True,False,False,False,False,False,False,False,False,False,False,False,False,False,False,False,True,False,False,False,True,False,False,False,False,False,False,False,False,False,False,False,False,False,False,0,0,0,0,0,0,0,0,0,-0.038116455078125,0.958160400390625,-0.28363037109375,0,0.53,0,29,3,3,100,4,4,0,0,0,
1420070643,441,Enabled,MagnetometerRate,None,True,True,True,False,True,True,False,False,False,False,False,False,False,False,False,False,False,False,False,False,False,True,False,False,False,True,False,False,False,False,False,False,False,False,False,False,False,False,False,False,0,0,0,0,0,0,0,0,0,-0.038177490234375,0.959442138671875,-0.27923583984375,0,0.54,0,29,3,3,100,4,4,0,0,0,
1420070644,441,Enabled,MagnetometerRate,None,True,True,True,False,True,True,False,False,False,False,False,False,False,False,False,False,False,False,False,False,False,True,False,False,False,True,False,False,False,False,False,False,False,False,False,False,False,False,False,False,0,0,0,0,0,0,0,0,0,-0.0382080078125,0.960723876953125,-0.274810791015625,0,0.55,0,28,3,3,100,4,4,0,0,0,
1420070645,441,Enabled,MagnetometerRate,None,True,True,True,False,True,True,False,False,False,False,False,False,False,False,False,False,False,False,False,False,False,True,False,False,False,True,False,False,False,False,False,False,False,False,False,False,False,False,False,False,0,0,0,0,0,0,0,0,0,-0.0382080078125,0.9627685546875,-0.267547607421875,0,0.54,0,28,3,3,100,4,4,0,0,0,
1420070646,441,Enabled,MagnetometerRate,None,True,True,True,False,True,True,False,False,False,False,False,False,False,False,False,False,False,False,False,False,False,True,False,False,False,True,False,False,False,False,False,False,False,False,False,False,False,False,False,False,0,0,0,0,0,0,0,0,0,-0.03826904296875,0.9639892578125,-0.26312255859375,0,0.54,0,27,3,3,100,4,4,0,0,0,
1420070647,441,Enabled,MagnetometerRate,None,True,True,True,False,True,True,False,False,False,False,False,False,False,False,False,False,False,False,False,False,False,True,False,False,False,True,False,False,False,False,False,False,False,False,False,False,False,False,False,False,0,0,0,0,0,0,0,0,0,-0.0382080078125,0.965362548828125,-0.258056640625,0,0.54,0,27,3,3,101,4,4,0,0,0,
1420070648,441,Enabled,MagnetometerRate,None,True,True,True,False,True,True,False,False,False,False,False,False,False,False,False,False,False,False,False,False,False,True,False,False,False,True,False,False,False,False,False,False,False,False,False,False,False,False,False,False,0,0,0,0,0,0,0,0,0,-0.038299560546875,0.967132568359375,-0.2513427734375,0,0.54,0,26,3,3,101,4,4,0,0,0,
1420070649,441,Enabled,MagnetometerRate,None,True,True,True,False,True,True,False,False,False,False,False,False,False,False,False,False,False,False,False,False,False,True,False,False,False,True,False,False,False,False,False,False,False,False,False,False,False,False,False,False,0,0,0,0,0,0,0,0,0,-0.038238525390625,0.968414306640625,-0.24627685546875,0,0.54,0,25,3,3,101,4,4,0,0,0,
1420070650,441,Enabled,MagnetometerRate,None,True,True,True,False,True,True,False,False,False,False,False,False,False,False,False,False,False,False,False,False,False,True,False,False,False,True,False,False,False,False,False,False,False,False,False,False,False,False,False,False,0,0,0,0,0,0,0,0,0,-0.038299560546875,0.970123291015625,-0.239532470703125,0,0.53,0,25,3,3,101,4,4,0,0,0,
1420070651,441,Enabled,MagnetometerRate,None,True,True,True,False,True,True,False,False,False,False,False,False,False,False,False,False,False,False,False,False,False,True,False,False,False,True,False,False,False,False,False,False,False,False,False,False,False,False,False,False,0,0,0,0,0,0,0,0,0,-0.035888671875,0.971435546875,-0.234466552734375,0,0.53,0,24,3,3,101,3,4,0,0,0,
1420070652,441,Enabled,MagnetometerRate,None,True,True,True,False,True,True,False,False,False,False,False,False,False,False,False,False,False,False,False,False,False,True,False,False,False,True,False,False,False,False,False,False,False,False,False,False,False,False,False,False,0,0,0,0,0,0,0,0,0,-0.03594970703125,0.973052978515625,-0.2276611328125,0,0.53,0,23,3,3,101,3,4,0,0,0,
1420070653,441,Enabled,MagnetometerRate,None,True,True,True,False,True,True,False,False,False,False,False,False,False,False,False,False,False,False,False,False,False,True,False,False,False,True,False,False,False,False,False,False,False,False,False,False,False,False,False,False,0,0,0,0,0,0,0,0,0,-0.038299560546875,0.97467041015625,-0.220306396484375,0,0.53,0,23,3,3,101,4,4,0,0,0,
1420070654,441,Enabled,MagnetometerRate,None,True,True,True,False,True,True,False,False,False,False,False,False,False,False,False,False,False,False,False,False,False,True,False,False,False,True,False,False,False,False,False,False,False,False,False,False,False,False,False,False,0,0,0,0,0,0,0,0,0,-0.038360595703125,0.976165771484375,-0.21343994140625,0,0.52,0,22,3,3,101,4,4,0,0,0,
1420070655,441,Enabled,MagnetometerRate,None,True,True,True,False,True,True,False,False,False,False,False,False,False,False,False,False,False,False,False,False,False,True,False,False,False,True,False,False,False,False,False,False,False,False,False,False,False,False,False,False,0,0,0,0,0,0,0,0,0,-0.03594970703125,0.97784423828125,-0.20611572265625,0,0.52,0,21,3,3,102,3,4,0,0,0,
1420070656,441,Enabled,MagnetometerRate,None,True,True,True,False,True,True,False,False,False,False,False,False,False,False,False,False,False,False,False,False,False,True,False,False,False,True,False,False,False,False,False,False,False,False,False,False,False,False,False,False,0,0,0,0,0,0,0,0,0,-0.035980224609375,0.979278564453125,-0.19921875,0,0.51,0,20,3,3,102,3,4,0,0,0,
1420070657,441,Enabled,MagnetometerRate,None,True,True,True,False,True,True,False,False,False,False,False,False,False,False,False,False,False,False,False,False,False,True,False,False,False,True,False,False,False,False,False,False,False,False,False,False,False,False,False,False,0,0,0,0,0,0,0,0,0,-0.038360595703125,0.98065185546875,-0.191802978515625,0,0.51,0,20,3,3,102,4,4,0,0,0,
1420070658,441,Enabled,MagnetometerRate,None,True,True,True,False,True,True,False,False,False,False,False,False,False,False,False,False,False,False,False,False,False,True,False,False,False,True,False,False,False,False,False,False,False,False,False,False,False,False,False,False,0,0,0,0,0,0,0,0,0,-0.03839111328125,0.98199462890625,-0.18487548828125,0,0.51,0,19,3,3,102,4,4,0,0,0,
1420070659,441,Enabled,MagnetometerRate,None,True,True,True,False,True,True,False,False,False,False,False,False,False,False,False,False,False,False,False,False,False,True,False,False,False,True,False,False,False,False,False,False,False,False,False,False,False,False,False,False,0,0,0,0,0,0,0,0,0,-0.038360595703125,0.983367919921875,-0.177459716796875,0,0.52,0,18,3,3,102,4,4,0,0,0,
1420070660,441,Enabled,MagnetometerRate,None,True,True,True,False,True,True,False,False,False,False,False,False,False,False,False,False,False,False,False,False,False,True,False,False,False,True,False,False,False,False,False,False,False,False,False,False,False,False,False,False,0,0,0,0,0,0,0,0,0,-0.038421630859375,0.984588623046875,-0.170501708984375,0,0.51,0,17,3,3,102,4,4,0,0,0,
1420070661,441,Enabled,MagnetometerRate,None,True,True,True,False,True,True,False,False,False,False,False,False,False,False,False,False,False,False,False,False,False,True,False,False,False,True,False,False,False,False,False,False,False,False,False,False,False,False,False,False,0,0,0,0,0,0,0,0,0,-0.035980224609375,0.986328125,-0.1607666015625,0,0.5,0,16,3,3,102,3,4,0,0,0,
1420070662,441,Enabled,MagnetometerRate,None,True,True,True,False,True,True,False,False,False,False,False,False,False,False,False,False,False,False,False,False,False,True,False,False,False,True,False,False,False,False,False,False,False,False,False,False,False,False,False,False,0,0,0,0,0,0,0,0,0,-0.038421630859375,0.987335205078125,-0.15374755859375,0,0.5,0,16,3,3,102,4,4,0,0,0,
1420070663,441,Enabled,MagnetometerRate,None,True,True,True,False,True,True,False,False,False,False,False,False,False,False,False,False,False,False,False,False,False,True,False,False,False,True,False,False,False,False,False,False,False,False,False,False,False,False,False,False,0,0,0,0,0,0,0,0,0,-0.038360595703125,0.98846435546875,-0.146331787109375,0,0.5,0,15,3,3,103,4,4,0,0,0,
1420070664,441,Enabled,MagnetometerRate,None,True,True,True,False,True,True,False,False,False,False,False,False,False,False,False,False,False,False,False,False,False,True,False,False,False,True,False,False,False,False,False,False,False,False,False,False,False,False,False,False,0,0,0,0,0,0,0,0,0,-0.0360107421875,0.989898681640625,-0.136932373046875,0,0.5,0,14,3,3,103,3,4,0,0,0,
1420070665,441,Enabled,MagnetometerRate,None,True,True,True,False,True,True,False,False,False,False,False,False,False,False,False,False,False,False,False,False,False,True,False,False,False,True,False,False,False,False,False,False,False,False,False,False,False,False,False,False,0,0,0,0,0,0,0,0,0,-0.0384521484375,0.99078369140625,-0.129852294921875,0,0.5,0,13,3,3,103,4,4,0,0,0,
1420070666,441,Enabled,MagnetometerRate,None,True,True,True,False,True,True,False,False,False,False,False,False,False,False,False,False,False,False,False,False,False,True,False,False,False,True,False,False,False,False,False,False,False,False,False,False,False,False,False,False,0,0,0,0,0,0,0,0,0,-0.03839111328125,0.99169921875,-0.1224365234375,0,0.5,0,12,3,3,103,4,4,0,0,0,
1420070667,441,Enabled,MagnetometerRate,None,True,True,True,False,True,True,False,False,False,False,False,False,False,False,False,False,False,False,False,False,False,True,False,False,False,True,False,False,False,False,False,False,False,False,False,False,False,False,False,False,0,0,0,0,0,0,0,0,0,-0.0384521484375,0.992828369140625,-0.11297607421875,0,0.49,0,11,3,3,103,4,4,0,0,0,
1420070668,441,Enabled,MagnetometerRate,None,True,True,True,False,True,True,False,False,False,False,False,False,False,False,False,False,False,False,False,False,False,True,False,False,False,True,False,False,False,False,False,False,False,False,False,False,False,False,False,False,0,0,0,0,0,0,0,0,0,-0.035980224609375,0.993743896484375,-0.1055908203125,0,0.48,0,11,3,3,103,3,4,0,0,0,
1420070669,441,Enabled,MagnetometerRate,None,True,True,True,False,True,True,False,False,False,False,False,False,False,False,False,False,False,False,False,False,False,True,False,False,False,True,False,False,False,False,False,False,False,False,False,False,False,False,False,False,0,0,0,0,0,0,0,0,0,-0.038421630859375,0.99462890625,-0.0960693359375,0,0.47,0,10,3,3,103,4,4,0,0,0,
1420070670,441,Enabled,MagnetometerRate,None,True,True,True,False,True,True,False,False,False,False,False,False,False,False,False,False,False,False,False,False,False,True,False,False,False,True,False,False,False,False,False,False,False,False,False,False,False,False,False,False,0,0,0,0,0,0,0,0,0,-0.036041259765625,0.995361328125,-0.088958740234375,0,0.47,0,9,3,3,103,3,4,0,0,0,
1420070671,441,Enabled,MagnetometerRate,None,True,True,True,False,True,True,False,False,False,False,False,False,False,False,False,False,False,False,False,False,False,True,False,False,False,True,False,False,False,False,False,False,False,False,False,False,False,False,False,False,0,0,0,0,0,0,0,0,0,-0.03607177734375,0.9959716796875,-0.081787109375,0,0.47,0,8,3,3,103,3,4,0,0,0,
1420070672,441,Enabled,MagnetometerRate,None,True,True,True,False,True,True,False,False,False,False,False,False,False,False,False,False,False,False,False,False,False,True,False,False,False,True,False,False,False,False,False,False,False,False,False,False,False,False,False,False,0,0,0,0,0,0,0,0,0,-0.0360107421875,0.996551513671875,-0.074432373046875,0,0.47,0,7,3,3,103,3,4,0,0,0,
1420070673,441,Enabled,MagnetometerRate,None,True,True,True,False,True,True,False,False,False,False,False,False,False,False,False,False,False,False,False,False,False,True,False,False,False,True,False,False,False,False,False,False,False,False,False,False,False,False,False,False,0,0,0,0,0,0,0,0,0,-0.0360107421875,0.9970703125,-0.0672607421875,0,0.47,0,7,3,3,103,3,4,0,0,0,
1420070674,441,Enabled,MagnetometerRate,None,True,True,True,False,True,True,False,False,False,False,False,False,False,False,False,False,False,False,False,False,False,True,False,False,False,True,False,False,False,False,False,False,False,False,False,False,False,False,False,False,0,0,0,0,0,0,0,0,0,-0.036041259765625,0.99737548828125,-0.062469482421875,0,0.46,0,6,3,3,103,3,4,0,0,0,
1420070675,441,Enabled,MagnetometerRate,None,True,True,True,False,True,True,False,False,False,False,False,False,False,False,False,False,False,False,False,False,False,True,False,False,False,True,False,False,False,False,False,False,False,False,False,False,False,False,False,False,0,0,0,0,0,0,0,0,0,-0.038360595703125,0.997589111328125,-0.057525634765625,0,0.46,0,6,3,3,104,4,4,0,0,0,
1420070676,441,Enabled,MagnetometerRate,None,True,True,True,False,True,True,False,False,False,False,False,False,False,False,False,False,False,False,False,False,False,True,False,False,False,True,False,False,False,False,False,False,False,False,False,False,False,False,False,False,0,0,0,0,0,0,0,0,0,-0.035980224609375,0.997955322265625,-0.052764892578125,0,0.45,0,5,3,3,104,3,4,0,0,0,
1420070677,441,Enabled,MagnetometerRate,None,True,True,True,False,True,True,False,False,False,False,False,False,False,False,False,False,False,False,False,False,False,True,False,False,False,True,False,False,False,False,False,False,False,False,False,False,False,False,False,False,0,0,0,0,0,0,0,0,0,-0.035980224609375,0.998077392578125,-0.05035400390625,0,0.45,0,5,3,3,104,3,4,0,0,0,
1420070678,441,Enabled,MagnetometerRate,None,True,True,True,False,True,True,False,False,False,False,False,False,False,False,False,False,False,False,False,False,False,True,False,False,False,True,False,False,False,False,False,False,False,False,False,False,False,False,False,False,0,0,0,0,0,0,0,0,0,-0.035980224609375,0.9981689453125,-0.0479736328125,0,0.45,0,5,3,3,104,3,4,0,0,0,
1420070679,441,Enabled,MagnetometerRate,None,True,True,True,False,True,True,False,False,False,False,False,False,False,False,False,False,False,False,False,False,False,True,False,False,False,True,False,False,False,False,False,False,False,False,False,False,False,False,False,False,0,0,0,0,0,0,0,0,0,-0.035980224609375,0.9984130859375,-0.043182373046875,0,0.44,0,4,3,3,104,3,4,0,0,0,
1420070680,441,Enabled,MagnetometerRate,None,True,True,True,False,True,True,False,False,False,False,False,False,False,False,False,False,False,False,False,False,False,True,False,False,False,True,False,False,False,False,False,False,False,False,False,False,False,False,False,False,0,0,0,0,0,0,0,0,0,-0.035980224609375,0.9984130859375,-0.043182373046875,0,0.44,0,4,3,3,104,3,4,0,0,0,
1420070681,441,Enabled,MagnetometerRate,None,True,True,True,False,True,True,False,False,False,False,False,False,False,False,False,False,False,False,False,False,False,True,False,False,False,True,False,False,False,False,False,False,False,False,False,False,False,False,False,False,0,0,0,0,0,0,0,0,0,-0.035980224609375,0.998504638671875,-0.040802001953125,0,0.44,0,4,3,3,104,3,4,0,0,0,
1420070682,441,Enabled,MagnetometerRate,None,True,True,True,False,True,True,False,False,False,False,False,False,False,False,False,False,False,False,False,False,False,True,False,False,False,True,False,False,False,False,False,False,False,False,False,False,False,False,False,False,0,0,0,0,0,0,0,0,0,-0.035980224609375,0.998504638671875,-0.040802001953125,0,0.44,0,4,3,3,104,3,4,0,0,0,
1420070683,441,Enabled,MagnetometerRate,None,True,True,True,False,True,True,False,False,False,False,False,False,False,False,False,False,False,False,False,False,False,True,False,False,False,True,False,False,False,False,False,False,False,False,False,False,False,False,False,False,0,0,0,0,0,0,0,0,0,-0.035980224609375,0.998504638671875,-0.040802001953125,0,0.43,0,4,3,3,104,3,3,0,0,0,
1420070684,441,Enabled,MagnetometerRate,None,True,True,True,False,True,True,False,False,False,False,False,False,False,False,False,False,False,False,False,False,False,True,False,False,False,True,False,False,False,False,False,False,False,False,False,False,False,False,False,False,0,0,0,0,0,0,0,0,0,-0.03839111328125,0.998504638671875,-0.03839111328125,0,0.43,0,4,3,3,104,4,4,0,0,0,
1420070685,441,Enabled,MagnetometerRate,None,True,True,True,False,True,True,False,False,False,False,False,False,False,False,False,False,False,False,False,False,False,True,False,False,False,True,False,False,False,False,False,False,False,False,False,False,False,False,False,False,0,0,0,0,0,0,0,0,0,-0.03607177734375,0.998687744140625,-0.03607177734375,0,0.42,0,3,3,3,103,3,4,0,0,0,
1420070686,441,Enabled,MagnetometerRate,None,True,True,True,False,True,True,False,False,False,False,False,False,False,False,False,False,False,False,False,False,False,True,False,False,False,True,False,False,False,False,False,False,False,False,False,False,False,False,False,False,0,0,0,0,0,0,0,0,0,-0.03607177734375,0.998687744140625,-0.03607177734375,0,0.42,0,3,3,3,103,3,4,0,0,0,
1420070687,441,Enabled,MagnetometerRate,None,True,True,True,False,True,True,False,False,False,False,False,False,False,False,False,False,False,False,False,False,False,True,False,False,False,True,False,False,False,False,False,False,False,False,False,False,False,False,False,False,0,0,0,0,0,0,0,0,0,-0.03607177734375,0.998687744140625,-0.03607177734375,0,0.41,0,3,3,3,103,3,4,0,0,0,
1420070688,441,Enabled,MagnetometerRate,None,True,True,True,False,True,True,False,False,False,False,False,False,False,False,False,False,False,False,False,False,False,True,False,False,False,True,False,False,False,False,False,False,False,False,False,False,False,False,False,False,0,0,0,0,0,0,0,0,0,-0.036163330078125,0.998687744140625,-0.036163330078125,0,0.4,0,3,3,3,103,3,4,0,0,0,
1420070689,441,Enabled,MagnetometerRate,None,True,True,True,False,True,True,False,False,False,False,False,False,False,False,False,False,False,False,False,False,False,True,False,False,False,True,False,False,False,False,False,False,False,False,False,False,False,False,False,False,0,0,0,0,0,0,0,0,0,-0.0362548828125,0.9986572265625,-0.0362548828125,0,0.4,0,3,3,3,103,3,4,0,0,0,
1420070690,441,Enabled,MagnetometerRate,None,True,True,True,False,True,True,False,False,False,False,False,False,False,False,False,False,False,False,False,False,False,True,False,False,False,True,False,False,False,False,False,False,False,False,False,False,False,False,False,False,0,0,0,0,0,0,0,0,0,-0.0362548828125,0.9986572265625,-0.0362548828125,0,0.4,0,3,3,3,103,3,4,0,0,0,
1420070691,441,Enabled,MagnetometerRate,None,True,True,True,False,True,True,False,False,False,False,False,False,False,False,False,False,False,False,False,False,False,True,False,False,False,True,False,False,False,False,False,False,False,False,False,False,False,False,False,False,0,0,0,0,0,0,0,0,0,-0.036346435546875,0.9986572265625,-0.036346435546875,0,0.4,0,3,3,3,103,3,4,0,0,0,
1420070692,441,Enabled,MagnetometerRate,None,True,True,True,False,True,True,False,False,False,False,False,False,False,False,False,False,False,False,False,False,False,True,False,False,False,True,False,False,False,False,False,False,False,False,False,False,False,False,False,False,0,0,0,0,0,0,0,0,0,-0.036346435546875,0.9986572265625,-0.036346435546875,0,0.4,0,3,3,3,103,3,4,0,0,0,
1420070693,441,Enabled,MagnetometerRate,None,True,True,True,False,True,True,False,False,False,False,False,False,False,False,False,False,False,False,False,False,False,True,False,False,False,True,False,False,False,False,False,False,False,False,False,False,False,False,False,False,0,0,0,0,0,0,0,0,0,-0.03643798828125,0.9986572265625,-0.03643798828125,0,0.39,0,3,3,3,102,3,4,0,0,0,
1420070694,441,Enabled,MagnetometerRate,None,True,True,True,False,True,True,False,False,False,False,False,False,False,False,False,False,False,False,False,False,False,True,False,False,False,True,False,False,False,False,False,False,False,False,False,False,False,False,False,False,0,0,0,0,0,0,0,0,0,-0.036529541015625,0.9986572265625,-0.036529541015625,0,0.39,0,3,3,3,102,3,3,0,0,0,
1420070695,441,Enabled,MagnetometerRate,None,True,True,True,False,True,True,False,False,False,False,False,False,False,False,False,False,False,False,False,False,False,True,False,False,False,True,False,False,False,False,False,False,False,False,False,False,False,False,False,False,0,0,0,0,0,0,0,0,0,-0.03662109375,0.9986572265625,-0.03662109375,0,0.39,0,3,3,3,102,3,3,0,0,0,
1420070696,441,Enabled,MagnetometerRate,None,True,True,True,False,True,True,False,False,False,False,False,False,False,False,False,False,False,False,False,False,False,True,False,False,False,True,False,False,False,False,False,False,False,False,False,False,False,False,False,False,0,0,0,0,0,0,0,0,0,-0.036712646484375,0.998626708984375,-0.036712646484375,0,0.39,0,3,3,3,102,3,3,0,0,0,
1420070697,441,Enabled,MagnetometerRate,None,True,True,True,False,True,True,False,False,False,False,False,False,False,False,False,False,False,False,False,False,False,True,False,False,False,True,False,False,False,False,False,False,False,False,False,False,False,False,False,False,0,0,0,0,0,0,0,0,0,-0.03680419921875,0.998626708984375,-0.03680419921875,0,0.38,0,3,3,3,101,3,3,0,0,0,
1420070698,441,Enabled,MagnetometerRate,None,True,True,True,False,True,True,False,False,False,False,False,False,False,False,False,False,False,False,False,False,False,True,False,False,False,True,False,False,False,False,False,False,False,False,False,False,False,False,False,False,0,0,0,0,0,0,0,0,0,-0.036865234375,0.998626708984375,-0.036865234375,0,0.37,0,3,3,3,101,3,3,0,0,0,
1420070699,441,Enabled,MagnetometerRate,None,True,True,True,False,True,True,False,False,False,False,False,False,False,False,False,False,False,False,False,False,False,True,False,False,False,True,False,False,False,False,False,False,False,False,False,False,False,False,False,False,0,0,0,0,0,0,0,0,0,-0.03704833984375,0.99859619140625,-0.03704833984375,0,0.36,0,3,3,3,101,3,3,0,0,0,
1420070700,441,Enabled,MagnetometerRate,None,True,True,True,False,True,True,False,False,False,False,False,False,False,False,False,False,False,False,False,False,False,True,False,False,False,True,False,False,False,False,False,False,False,False,False,False,False,False,False,False,0,0,0,0,0,0,0,0,0,-0.037139892578125,0.99859619140625,-0.037139892578125,0,0.36,0,3,3,3,100,3,3,0,0,0,
1420070701,441,Enabled,MagnetometerRate,None,True,True,True,False,True,True,False,False,False,False,False,False,False,False,False,False,False,False,False,False,False,True,False,False,False,True,False,False,False,False,False,False,False,False,False,False,False,False,False,False,0,0,0,0,0,0,0,0,0,-0.037353515625,0.99859619140625,-0.037353515625,0,0.35,0,3,3,3,100,3,3,0,0,0,
1420070702,441,Enabled,MagnetometerRate,None,True,True,True,False,True,True,False,False,False,False,False,False,False,False,False,False,False,False,False,False,False,True,False,False,False,True,False,False,False,False,False,False,False,False,False,False,False,False,False,False,0,0,0,0,0,0,0,0,0,-0.037445068359375,0.99859619140625,-0.037445068359375,0,0.35,0,3,3,3,100,3,3,0,0,0,
1420070703,441,Enabled,MagnetometerRate,None,True,True,True,False,True,True,False,False,False,False,False,False,False,False,False,False,False,False,False,False,False,True,False,False,False,True,False,False,False,False,False,False,False,False,False,False,False,False,False,False,0,0,0,0,0,0,0,0,0,-0.037628173828125,0.998565673828125,-0.037628173828125,0,0.34,0,3,3,3,99,3,3,0,0,0,
1420070704,441,Enabled,MagnetometerRate,None,True,True,True,False,True,True,False,False,False,False,False,False,False,False,False,False,False,False,False,False,False,True,False,False,False,True,False,False,False,False,False,False,False,False,False,False,False,False,False,False,0,0,0,0,0,0,0,0,0,-0.037811279296875,0.998565673828125,-0.037811279296875,0,0.34,0,3,3,3,99,3,3,0,0,0,
1420070705,441,Enabled,MagnetometerRate,None,True,True,True,False,True,True,False,False,False,False,False,False,False,False,False,False,False,False,False,False,False,True,False,False,False,True,False,False,False,False,False,False,False,False,False,False,False,False,False,False,0,0,0,0,0,0,0,0,0,-0.037994384765625,0.99853515625,-0.037994384765625,0,0.34,0,3,3,3,98,3,3,0,0,0,
1420070706,441,Enabled,MagnetometerRate,None,True,True,True,False,True,True,False,False,False,False,False,False,False,False,False,False,False,False,False,False,False,True,False,False,False,True,False,False,False,False,False,False,False,False,False,False,False,False,False,False,0,0,0,0,0,0,0,0,0,-0.0382080078125,0.99853515625,-0.0382080078125,0,0.33,0,3,3,3,98,3,3,0,0,0,
1420070707,441,Enabled,MagnetometerRate,None,True,True,True,False,True,True,False,False,False,False,False,False,False,False,False,False,False,False,False,False,False,True,False,False,False,True,False,False,False,False,False,False,False,False,False,False,False,False,False,False,0,0,0,0,0,0,0,0,0,-0.03839111328125,0.998504638671875,-0.03839111328125,0,0.33,0,3,3,3,97,3,3,0,0,0,
1420070708,441,Enabled,MagnetometerRate,None,True,True,True,False,True,True,False,False,False,False,False,False,False,False,False,False,False,False,False,False,False,True,False,False,False,True,False,False,False,False,False,False,False,False,False,False,False,False,False,False,0,0,0,0,0,0,0,0,0,-0.03857421875,0.998504638671875,-0.03857421875,0,0.32,0,3,3,3,97,3,3,0,0,0,
1420070709,441,Enabled,MagnetometerRate,None,True,True,True,False,True,True,False,False,False,False,False,False,False,False,False,False,False,False,False,False,False,True,False,False,False,True,False,False,False,False,False,False,False,False,False,False,False,False,False,False,0,0,0,0,0,0,0,0,0,-0.09149169921875,0.983642578125,0.155029296875,0,0.32,0,12,15,8,96,9,10,0,0,0,
1420070710,441,Enabled,MagnetometerRate,None,True,True,True,False,True,True,False,False,False,False,False,False,False,False,False,False,False,False,False,False,False,True,False,False,False,True,False,False,False,False,False,False,False,False,False,False,False,False,False,False,0,0,0,0,0,0,0,0,0,-0.039093017578125,0.998443603515625,-0.039093017578125,0,0.3,0,3,3,3,95,3,3,0,0,0,
1420070711,441,Enabled,MagnetometerRate,None,True,True,True,False,True,True,False,False,False,False,False,False,False,False,False,False,False,False,False,False,False,True,False,False,False,True,False,False,False,False,False,False,False,False,False,False,False,False,False,False,0,0,0,0,0,0,0,0,0,-0.039398193359375,0.998443603515625,-0.039398193359375,0,0.29,0,3,3,3,95,3,3,0,0,0,
1420070712,441,Enabled,MagnetometerRate,None,True,True,True,False,True,True,False,False,False,False,False,False,False,False,False,False,False,False,False,False,False,True,False,False,False,True,False,False,False,False,False,False,False,False,False,False,False,False,False,False,0,0,0,0,0,0,0,0,0,-0.039703369140625,0.9984130859375,-0.039703369140625,0,0.28,0,3,3,3,94,3,3,0,0,0,
1420070713,441,Enabled,MagnetometerRate,None,True,True,True,False,True,True,False,False,False,False,False,False,False,False,False,False,False,False,False,False,False,True,False,False,False,True,False,False,False,False,False,False,False,False,False,False,False,False,False,False,0,0,0,0,0,0,0,0,0,-0.0400390625,0.998382568359375,-0.0400390625,0,0.29,0,3,3,3,93,3,3,0,0,0,
1420070714,441,Enabled,MagnetometerRate,None,True,True,True,False,True,True,False,False,False,False,False,False,False,False,False,False,False,False,False,False,False,True,False,False,False,True,False,False,False,False,False,False,False,False,False,False,False,False,False,False,0,0,0,0,0,0,0,0,0,-0.04034423828125,0.99835205078125,-0.04034423828125,0,0.29,0,3,3,3,92,3,3,0,0,0,
1420070715,441,Enabled,MagnetometerRate,None,True,True,True,False,True,True,False,False,False,False,False,False,False,False,False,False,False,False,False,False,False,True,False,False,False,True,False,False,False,False,False,False,False,False,False,False,False,False,False,False,0,0,0,0,0,0,0,0,0,-0.040679931640625,0.998321533203125,-0.040679931640625,0,0.29,0,3,3,3,92,3,3,0,0,0,
1420070716,441,Enabled,MagnetometerRate,None,True,True,True,False,True,True,False,False,False,False,False,False,False,False,False,False,False,False,False,False,False,True,False,False,False,True,False,False,False,False,False,False,False,False,False,False,False,False,False,False,0,0,0,0,0,0,0,0,0,-0.041015625,0.998291015625,-0.041015625,0,0.28,0,3,3,3,91,3,3,0,0,0,
1420070717,441,Enabled,MagnetometerRate,None,True,True,True,False,True,True,False,False,False,False,False,False,False,False,False,False,False,False,False,False,False,True,False,False,False,True,False,False,False,False,False,False,False,False,False,False,False,False,False,False,0,0,0,0,0,0,0,0,0,-0.041473388671875,0.998260498046875,-0.041473388671875,0,0.27,0,3,3,3,90,3,3,0,0,0,
1420070718,441,Enabled,MagnetometerRate,None,True,True,True,False,True,True,False,False,False,False,False,False,False,False,False,False,False,False,False,False,False,True,False,False,False,True,False,False,False,False,False,False,False,False,False,False,False,False,False,False,0,0,0,0,0,0,0,0,0,-0.04180908203125,0.99822998046875,-0.04180908203125,0,0.27,0,3,3,3,89,3,3,0,0,0,
1420070719,441,Enabled,MagnetometerRate,None,True,True,True,False,True,True,False,False,False,False,False,False,False,False,False,False,False,False,False,False,False,True,False,False,False,True,False,False,False,False,False,False,False,False,False,False,False,False,False,False,0,0,0,0,0,0,0,0,0,-0.042266845703125,0.998199462890625,-0.042266845703125,0,0.26,0,3,3,3,88,3,3,0,0,0,
1420070720,441,Enabled,MagnetometerRate,None,True,True,True,False,True,True,False,False,False,False,False,False,False,False,False,False,False,False,False,False,False,True,False,False,False,True,False,False,False,False,False,False,False,False,False,False,False,False,False,False,0,0,0,0,0,0,0,0,0,-0.042755126953125,0.998138427734375,-0.042755126953125,0,0.25,0,3,3,3,87,3,3,0,0,0,
1420070721,441,Enabled,MagnetometerRate,None,True,True,True,False,True,True,False,False,False,False,False,False,False,False,False,False,False,False,False,False,False,True,False,False,False,True,False,False,False,False,False,False,False,False,False,False,False,False,False,False,0,0,0,0,0,0,0,0,0,-0.043243408203125,0.99798583984375,0.046142578125,0,0.24,0,3,4,3,86,3,3,0,0,0,
1420070722,441,Enabled,MagnetometerRate,None,True,True,True,False,True,True,False,False,False,False,False,False,False,False,False,False,False,False,False,False,False,True,False,False,False,True,False,False,False,False,False,False,False,False,False,False,False,False,False,False,0,0,0,0,0,0,0,0,0,-0.04376220703125,0.997802734375,0.049591064453125,0,0.24,0,3,4,3,85,3,3,0,0,0,
1420070723,441,Enabled,MagnetometerRate,None,True,True,True,False,True,True,False,False,False,False,False,False,False,False,False,False,False,False,False,False,False,True,False,False,False,True,False,False,False,False,False,False,False,False,False,False,False,False,False,False,0,0,0,0,0,0,0,0,0,-0.04425048828125,0.9974365234375,0.056060791015625,0,0.23,0,3,4,3,84,3,3,0,0,0,
1420070724,441,Enabled,MagnetometerRate,None,True,True,True,False,True,True,False,False,False,False,False,False,False,False,False,False,False,False,False,False,False,True,False,False,False,True,False,False,False,False,False,False,False,False,False,False,False,False,False,False,0,0,0,0,0,0,0,0,0,-0.044891357421875,0.99700927734375,0.0628662109375,0,0.23,0,3,5,3,83,3,3,0,0,0,
1420070725,441,Enabled,MagnetometerRate,None,True,True,True,False,True,True,False,False,False,False,False,False,False,False,False,False,False,False,False,False,False,True,False,False,False,True,False,False,False,False,False,False,False,False,False,False,False,False,False,False,0,0,0,0,0,0,0,0,0,-0.04541015625,0.99609375,0.07568359375,0,0.22,0,3,6,3,82,3,3,0,0,0,
1420070726,441,Enabled,MagnetometerRate,None,True,True,True,False,True,True,False,False,False,False,False,False,False,False,False,False,False,False,False,False,False,True,False,False,False,True,False,False,False,False,False,False,False,False,False,False,False,False,False,False,0,0,0,0,0,0,0,0,0,-0.045989990234375,0.99346923828125,0.104248046875,0,0.22,0,3,8,3,81,3,3,0,0,0,
1420070727,441,Enabled,MagnetometerRate,None,True,True,True,False,True,True,False,False,False,False,False,False,False,False,False,False,False,False,False,False,False,True,False,False,False,True,False,False,False,False,False,False,False,False,False,False,False,False,False,False,0,0,0,0,0,0,0,0,0,-0.046478271484375,0.988677978515625,0.142547607421875,0,0.21,0,3,11,3,79,3,3,0,0,0,
1420070728,441,Enabled,MagnetometerRate,None,True,True,True,False,True,True,False,False,False,False,False,False,False,False,False,False,False,False,False,False,False,True,False,False,False,True,False,False,False,False,False,False,False,False,False,False,False,False,False,False,0,0,0,0,0,0,0,0,0,-0.046905517578125,0.982269287109375,0.181427001953125,0,0.21,0,3,14,3,78,3,3,0,0,0,
1420070729,441,Enabled,MagnetometerRate,None,True,True,True,False,True,True,False,False,False,False,False,False,False,False,False,False,False,False,False,False,False,True,False,False,False,True,False,False,False,False,False,False,False,False,False,False,False,False,False,False,0,0,0,0,0,0,0,0,0,-0.0472412109375,0.9735107421875,0.223663330078125,0,0.2,0,3,17,3,77,3,3,0,0,0,
1420070730,441,Enabled,MagnetometerRate,None,True,True,True,False,True,True,False,False,False,False,False,False,False,False,False,False,False,False,False,False,False,True,False,False,False,True,False,False,False,False,False,False,False,False,False,False,False,False,False,False,0,0,0,0,0,0,0,0,0,-0.0474853515625,0.9627685546875,0.266021728515625,0,0.2,0,3,21,3,76,3,3,0,0,0,
1420070731,441,Enabled,MagnetometerRate,None,True,True,True,False,True,True,False,False,False,False,False,False,False,False,False,False,False,False,False,False,False,True,False,False,False,True,False,False,False,False,False,False,False,False,False,False,False,False,False,False,0,0,0,0,0,0,0,0,0,-0.047698974609375,0.951019287109375,0.305328369140625,0,0.2,0,3,24,3,74,3,3,0,0,0,
1420070732,441,Enabled,MagnetometerRate,None,True,True,True,False,True,True,False,False,False,False,False,False,False,False,False,False,False,False,False,False,False,True,False,False,False,True,False,False,False,False,False,False,False,False,False,False,False,False,False,False,0,0,0,0,0,0,0,0,0,-0.047821044921875,0.937591552734375,0.34442138671875,0,0.19,0,3,27,3,73,3,3,0,0,0,
1420070733,441,Enabled,MagnetometerRate,None,True,True,True,False,True,True,False,False,False,False,False,False,False,False,False,False,False,False,False,False,False,True,False,False,False,True,False,False,False,False,False,False,False,False,False,False,False,False,False,False,0,0,0,0,0,0,0,0,0,-0.048004150390625,0.9219970703125,0.3841552734375,0,0.19,0,3,30,3,72,3,3,0,0,0,
1420070734,441,Enabled,MagnetometerRate,None,True,True,True,False,True,True,False,False,False,False,False,False,False,False,False,False,False,False,False,False,False,True,False,False,False,True,False,False,False,False,False,False,False,False,False,False,False,False,False,False,0,0,0,0,0,0,0,0,0,-0.0479736328125,0.90521240234375,0.422210693359375,0,0.17,0,3,33,3,70,3,3,0,0,0,
1420070735,441,Enabled,MagnetometerRate,None,True,True,True,False,True,True,False,False,False,False,False,False,False,False,False,False,False,False,False,False,False,True,False,False,False,True,False,False,False,False,False,False,False,False,False,False,False,False,False,False,0,0,0,0,0,0,0,0,0,-0.0478515625,0.88690185546875,0.45941162109375,0,0.17,0,3,36,3,69,3,3,0,0,0,
1420070736,441,Enabled,MagnetometerRate,None,True,True,True,False,True,True,False,False,False,False,False,False,False,False,False,False,False,False,False,False,False,True,False,False,False,True,False,False,False,False,False,False,False,False,False,False,False,False,False,False,0,0,0,0,0,0,0,0,0,-0.047760009765625,0.866455078125,0.496917724609375,0,0.16,0,3,39,3,68,3,3,0,0,0,
1420070737,441,Enabled,MagnetometerRate,None,True,True,True,False,True,True,False,False,False,False,False,False,False,False,False,False,False,False,False,False,False,True,False,False,False,True,False,False,False,False,False,False,False,False,False,False,False,False,False,False,0,0,0,0,0,0,0,0,0,-0.047698974609375,0.845947265625,0.531097412109375,0,0.16,0,3,41,3,66,3,3,0,0,0,
1420070738,441,Enabled,MagnetometerRate,None,True,True,True,False,True,True,False,False,False,False,False,False,False,False,False,False,False,False,False,False,False,True,False,False,False,True,False,False,False,False,False,False,False,False,False,False,False,False,False,False,0,0,0,0,0,0,0,0,0,-0.047454833984375,0.822723388671875,0.56640625,0,0.15,0,3,44,3,65,3,3,0,0,0,
1420070739,441,Enabled,MagnetometerRate,None,True,True,True,False,True,True,False,False,False,False,False,False,False,False,False,False,False,False,False,False,False,True,False,False,False,True,False,False,False,False,False,False,False,False,False,False,False,False,False,False,0,0,0,0,0,0,0,0,0,-0.04730224609375,0.801361083984375,0.596282958984375,0,0.15,0,3,47,3,63,3,3,0,0,0,
1420070740,441,Enabled,MagnetometerRate,None,True,True,True,False,True,True,False,False,False,False,False,False,False,False,False,False,False,False,False,False,False,True,False,False,False,True,False,False,False,False,False,False,False,False,False,False,False,False,False,False,0,0,0,0,0,0,0,0,0,-0.047210693359375,0.780609130859375,0.62322998046875,0,0.14,0,3,49,3,62,3,3,0,0,0,
1420070741,441,Enabled,MagnetometerRate,None,True,True,True,False,True,True,False,False,False,False,False,False,False,False,False,False,False,False,False,False,False,True,False,False,False,True,False,False,False,False,False,False,False,False,False,False,False,False,False,False,0,0,0,0,0,0,0,0,0,-0.047515869140625,0.766815185546875,0.64007568359375,0,0.14,0,3,50,3,60,3,3,0,0,0,
1420070742,441,Enabled,MagnetometerRate,None,True,True,True,False,True,True,False,False,False,False,False,False,False,False,False,False,False,False,False,False,False,True,False,False,False,True,False,False,False,False,False,False,False,False,False,False,False,False,False,False,0,0,0,0,0,0,0,0,0,-0.048004150390625,0.755645751953125,0.6531982421875,0,0.13,0,3,51,3,59,3,3,0,0,0,
1420070743,441,Enabled,MagnetometerRate,None,True,True,True,False,True,True,False,False,False,False,False,False,False,False,False,False,False,False,False,False,False,True,False,False,False,True,False,False,False,False,False,False,False,False,False,False,False,False,False,False,0,0,0,0,0,0,0,0,0,-0.04840087890625,0.742401123046875,0.66815185546875,0,0.13,0,3,51,3,57,3,3,0,0,0,
1420070744,441,Enabled,MagnetometerRate,None,True,True,True,False,True,True,False,False,False,False,False,False,False,False,False,False,False,False,False,False,False,True,False,False,False,True,False,False,False,False,False,False,False,False,False,False,False,False,False,False,0,0,0,0,0,0,0,0,0,-0.04888916015625,0.73028564453125,0.681365966796875,0,0.12,0,3,52,3,56,3,3,0,0,0,
1420070745,441,Enabled,MagnetometerRate,None,True,True,True,False,True,True,False,False,False,False,False,False,False,False,False,False,False,False,False,False,False,True,False,False,False,True,False,False,False,False,False,False,False,False,False,False,False,False,False,False,0,0,0,0,0,0,0,0,0,-0.049468994140625,0.71929931640625,0.692901611328125,0,0.11,0,3,52,3,54,3,3,0,0,0,
1420070746,441,Enabled,MagnetometerRate,None,True,True,True,False,True,True,False,False,False,False,False,False,False,False,False,False,False,False,False,False,False,True,False,False,False,True,False,False,False,False,False,False,False,False,False,False,False,False,False,False,0,0,0,0,0,0,0,0,0,-0.049957275390625,0.706207275390625,0.706207275390625,0,0.09,0,3,53,3,53,3,3,0,0,0,
1420070747,441,Enabled,MagnetometerRate,None,True,True,True,False,True,True,False,False,False,False,False,False,False,False,False,False,False,False,False,False,False,True,False,False,False,True,False,False,False,False,False,False,False,False,False,False,False,False,False,False,0,0,0,0,0,0,0,0,0,-0.050537109375,0.694305419921875,0.7178955078125,0,0.09,0,3,53,3,51,3,3,0,0,0,
1420070748,441,Enabled,MagnetometerRate,None,True,True,True,False,True,True,False,False,False,False,False,False,False,False,False,False,False,False,False,False,False,True,False,False,False,True,False,False,False,False,False,False,False,False,False,False,False,False,False,False,0,0,0,0,0,0,0,0,0,-0.051239013671875,0.6800537109375,0.7313232421875,0,0.09,0,3,53,3,49,3,3,0,0,0,
1420070749,441,Enabled,MagnetometerRate,None,True,True,True,False,True,True,False,False,False,False,False,False,False,False,False,False,False,False,False,False,False,True,False,False,False,True,False,False,False,False,False,False,False,False,False,False,False,False,False,False,0,0,0,0,0,0,0,0,0,-0.051971435546875,0.6688232421875,0.7415771484375,0,0.09,0,3,53,3,48,3,3,0,0,0,
1420070750,441,Enabled,MagnetometerRate,None,True,True,True,False,True,True,False,False,False,False,False,False,False,False,False,False,False,False,False,False,False,True,False,False,False,True,False,False,False,False,False,False,False,False,False,False,False,False,False,False,0,0,0,0,0,0,0,0,0,-0.052703857421875,0.657073974609375,0.751953125,0,0.09,0,3,53,3,46,3,3,0,0,0,
1420070751,441,Enabled,MagnetometerRate,None,True,True,True,False,True,True,False,False,False,False,False,False,False,False,False,False,False,False,False,False,False,True,False,False,False,True,False,False,False,False,False,False,False,False,False,False,False,False,False,False,0,0,0,0,0,0,0,0,0,-0.053436279296875,0.64483642578125,0.762420654296875,0,0.08,0,3,53,3,45,3,3,0,0,0,
1420070752,441,Enabled,MagnetometerRate,None,True,True,True,False,True,True,False,False,False,False,False,False,False,False,False,False,False,False,False,False,False,True,False,False,False,True,False,False,False,False,False,False,False,False,False,False,False,False,False,False,0,0,0,0,0,0,0,0,0,-0.054168701171875,0.632110595703125,0.772979736328125,0,0.07,0,3,53,3,43,3,3,0,0,0,
1420070753,441,Enabled,MagnetometerRate,None,True,True,True,False,True,True,False,False,False,False,False,False,False,False,False,False,False,False,False,False,False,True,False,False,False,True,False,False,False,False,False,False,False,False,False,False,False,False,False,False,0,0,0,0,0,0,0,0,0,-0.054901123046875,0.618804931640625,0.783599853515625,0,0.07,0,3,53,3,42,3,3,0,0,0,
1420070754,441,Enabled,MagnetometerRate,None,True,True,True,False,True,True,False,False,False,False,False,False,False,False,False,False,False,False,False,False,False,True,False,False,False,True,False,False,False,False,False,False,False,False,False,False,False,False,False,False,0,0,0,0,0,0,0,0,0,-0.0557861328125,0.60260009765625,0.796051025390625,0,0.07,0,3,53,3,40,3,3,0,0,0,
1420070755,441,Enabled,MagnetometerRate,None,True,True,True,False,True,True,False,False,False,False,False,False,False,False,False,False,False,False,False,False,False,True,False,False,False,True,False,False,False,False,False,False,False,False,False,False,False,False,False,False,0,0,0,0,0,0,0,0,0,-0.056549072265625,0.588104248046875,0.8067626953125,0,0.07,0,3,53,3,39,3,3,0,0,0,
1420070756,441,Enabled,MagnetometerRate,None,True,True,True,False,True,True,False,False,False,False,False,False,False,False,False,False,False,False,False,False,False,True,False,False,False,True,False,False,False,False,False,False,False,False,False,False,False,False,False,False,0,0,0,0,0,0,0,0,0,-0.057464599609375,0.574798583984375,0.816253662109375,0,0.06,0,3,53,3,37,3,3,0,0,0,
1420070757,441,Enabled,MagnetometerRate,None,True,True,True,False,True,True,False,False,False,False,False,False,False,False,False,False,False,False,False,False,False,True,False,False,False,True,False,False,False,False,False,False,False,False,False,False,False,False,False,False,0,0,0,0,0,0,0,0,0,-0.05841064453125,0.5609130859375,0.825775146484375,0,0.05,0,3,53,3,36,3,3,0,0,0,
