Current Unix Time (s),Milliseconds (ms),ADCS State,Attitude Estimation Mode,Control Mode,CubeControl Signal Enabled,CubeControl Motor Enabled,CubeSense Enabled,GPS Receiver Enabled,GPS LNA Power Enabled,Motor Driver Enabled,Magnetometer Deployment Enabled,Configuration Load Error,Orbit Parameters Load Error,CubeSense Communications Error,CubeControl Signal Communications Error,CubeControl Motor Communications Error,CubeSense Node Identification Error,CubeControl Signal Identification Error,CubeControl Motor Identification Error,Magnetometer Deployment Power Error,1s Control Loop Time Exceeded,Magnetometer Range Error,Sun Sensor Overcurrent Detected,Sun Sensor Busy Error,Sun Sensor Detection Error,Wheel Control Error,Nadir Sensor Overcurrent Detected,Nadir Sensor Busy Error,Nadir Sensor Detection Error,Estimation Error,Rate Sensor Range Error,Wheel Speed Range Error,Coarse Sun Sensor Error,Orbit Parameters are Invalid,Configuration is Invalid,Control Mode Change is not allowed,Estimator Change is not allowed,Modelled and measured magnetic field differs in size,SRAM Latch-up Error,SD Card Error,Node Recovery Error,Steady-State Y-Thomson detected,TRIAD and EKF reports same attitude,Sun is Above Local Horizon,Estimated Roll Angle (deg),Estimated Pitch Angle (deg),Estimated Yaw Angle (deg),Estimated X Anglular Rate (deg/s),Estimated Y Anglular Rate (deg/s),Estimated Z Anglular Rate (deg/s),Magnetic Field X (nT),Magnetic Field X (nT),Magnetic Field X (nT),Coarse Sun X,Coarse Sun Y,Coarse Sun Z,X Angular Rate (deg/s),Y Angular Rate (deg/s),Z Angular Rate (deg/s),CSS1,CSS2,CSS3,CSS4,CSS5,CSS6,MagX,MagY,MagZ,
1501306929,531,Enabled,MagRatePitch,None,True,True,True,False,True,True,False,False,False,False,False,False,False,False,False,False,False,True,False,False,False,True,False,False,False,True,False,False,False,False,False,False,False,True,False,False,False,False,False,False,0,-118.63,0,-0.05,1.1,-1.1,-33060,610,-30030,-0.683685302734375,0.5501708984375,0.479400634765625,0,1.21,0,10,59,8,68,84,85,-13703,17627,2551,
1501306930,531,Enabled,MagRatePitch,None,True,True,True,False,True,True,False,False,False,False,False,False,False,False,False,False,False,False,False,False,False,True,False,False,False,True,False,False,False,False,False,False,False,True,False,False,False,False,False,False,0,-121.65,0,1.35,0.94,-0.01,-32710,-370,-30250,-0.688232421875,0.573516845703125,0.4442138671875,0,1.11,0,4,53,4,68,82,84,-13815,17485,3028,
1501306931,531,Enabled,MagRatePitch,None,True,True,True,False,True,True,False,False,False,False,False,False,False,False,False,False,False,False,False,False,False,True,False,False,False,True,False,False,False,False,False,False,False,True,False,False,False,False,False,False,0,-122.36,0,1.37,0.82,-0.03,-32300,-1110,-30720,-0.697113037109375,0.57952880859375,0.42205810546875,0,1.01,0,4,50,4,69,83,85,-14031,17320,3390,
1501306932,531,Enabled,MagRatePitch,None,True,True,True,False,True,True,False,False,False,False,False,False,False,False,False,False,False,False,False,False,False,True,False,False,False,True,False,False,False,False,False,False,False,True,False,False,False,False,False,False,0,-122.33,0,1.48,0.73,0.04,-31900,-1900,-31020,-0.703338623046875,0.5875244140625,0.40008544921875,0,0.94,0,4,47,4,69,83,86,-14176,17156,3771,
1501306933,531,Enabled,MagRatePitch,None,True,True,True,False,True,True,False,False,False,False,False,False,False,False,False,False,False,False,False,False,False,True,False,False,False,True,False,False,False,False,False,False,False,True,False,False,False,False,False,False,0,-122.08,0,1.52,0.66,0.06,-31570,-2690,-31310,-0.710968017578125,0.59246826171875,0.378753662109375,0,0.89,0,4,44,4,70,84,87,-14314,17023,4153,
1501306934,531,Enabled,MagRatePitch,None,True,True,True,False,True,True,False,False,False,False,False,False,False,False,False,False,False,False,False,False,False,True,False,False,False,True,False,False,False,False,False,False,False,True,False,False,False,False,False,False,0,-121.72,0,1.39,0.62,-0.05,-31210,-3460,-31590,-0.7183837890625,0.59759521484375,0.35601806640625,0,0.82,0,4,42,4,70,84,88,-14450,16873,4528,
1501306935,531,Enabled,MagRatePitch,None,True,True,True,False,True,True,False,False,False,False,False,False,False,False,False,False,False,False,False,False,False,True,False,False,False,True,False,False,False,False,False,False,False,True,False,False,False,False,False,False,0,-121.35,0,1.29,0.6,-0.12,-30880,-4210,-31850,-0.72625732421875,0.6005859375,0.3343505859375,0,0.76,0,4,39,4,70,85,89,-14573,16741,4891,
1501306936,531,Enabled,MagRatePitch,None,True,True,True,False,True,True,False,False,False,False,False,False,False,False,False,False,False,False,False,False,False,True,False,False,False,True,False,False,False,False,False,False,False,True,False,False,False,False,False,False,0,-121.02,0,1.28,0.56,-0.12,-30560,-5010,-32030,-0.73333740234375,0.603302001953125,0.3133544921875,0,0.72,0,4,36,4,70,86,89,-14663,16608,5273,
1501306937,531,Enabled,MagRatePitch,None,True,True,True,False,True,True,False,False,False,False,False,False,False,False,False,False,False,False,False,False,False,True,False,False,False,True,False,False,False,False,False,False,False,True,False,False,False,False,False,False,0,-120.71,0,1.18,0.51,-0.21,-30250,-5770,-32220,-0.74005126953125,0.605316162109375,0.29302978515625,0,0.7,0,4,34,4,70,86,90,-14758,16479,5642,
1501306938,531,Enabled,MagRatePitch,None,True,True,True,False,True,True,False,False,False,False,False,False,False,False,False,False,False,False,False,False,False,True,False,False,False,True,False,False,False,False,False,False,False,True,False,False,False,False,False,False,0,-120.2,0,0.56,0.48,-0.69,-29840,-6290,-32670,-0.74951171875,0.592926025390625,0.29437255859375,0,0.69,0,9,35,8,71,89,93,-14961,16313,5897,
1501306939,531,Enabled,MagRatePitch,None,True,True,True,False,True,True,False,False,False,False,False,False,False,False,False,False,False,False,False,False,False,True,False,False,False,True,False,False,False,False,False,False,False,True,False,False,False,False,False,False,0,-120.15,0,1.15,0.45,-0.15,-29660,-7260,-32420,-0.75177001953125,0.60784912109375,0.255584716796875,0,0.65,0,4,29,4,70,87,92,-14869,16236,6353,
1501306940,531,Enabled,MagRatePitch,None,True,True,True,False,True,True,False,False,False,False,False,False,False,False,False,False,False,False,False,False,False,True,False,False,False,True,False,False,False,False,False,False,False,True,False,False,False,False,False,False,0,-119.98,0,1.1,0.44,-0.21,-29370,-7980,-32520,-0.7578125,0.60711669921875,0.23895263671875,0,0.6,0,4,27,4,70,88,93,-14925,16114,6702,
1501306941,531,Enabled,MagRatePitch,None,True,True,True,False,True,True,False,False,False,False,False,False,False,False,False,False,False,False,False,False,False,True,False,False,False,True,False,False,False,False,False,False,False,True,False,False,False,False,False,False,0,-119.62,0,0.68,0.43,-0.5,-29070,-8480,-32900,-0.767425537109375,0.5928955078125,0.243896484375,0,0.57,0,9,29,8,70,91,96,-15099,15994,6946,
1501306942,531,Enabled,MagRatePitch,None,True,True,True,False,True,True,False,False,False,False,False,False,False,False,False,False,False,False,False,False,False,True,False,False,False,True,False,False,False,False,False,False,False,True,False,False,False,False,False,False,0,-119.57,0,1.06,0.41,-0.19,-28810,-9410,-32620,-0.769256591796875,0.60504150390625,0.20526123046875,0,0.57,0,4,23,4,70,89,94,-14989,15879,7383,
1501306943,531,Enabled,MagRatePitch,None,True,True,True,False,True,True,False,False,False,False,False,False,False,False,False,False,False,False,False,False,False,True,False,False,False,True,False,False,False,False,False,False,False,True,False,False,False,False,False,False,0,-119.41,0,0.97,0.39,-0.3,-28490,-10120,-32700,-0.77532958984375,0.602081298828125,0.190582275390625,0,0.57,0,4,22,4,69,89,95,-15035,15746,7725,
1501306944,531,Enabled,MagRatePitch,None,True,True,True,False,True,True,False,False,False,False,False,False,False,False,False,False,False,False,False,False,False,True,False,False,False,True,False,False,False,False,False,False,False,True,False,False,False,False,False,False,0,-119.23,0,0.85,0.37,-0.35,-28200,-10730,-32750,-0.78094482421875,0.598724365234375,0.1778564453125,0,0.57,0,4,20,4,69,90,96,-15065,15627,8014,
1501306945,531,Enabled,MagRatePitch,None,True,True,True,False,True,True,False,False,False,False,False,False,False,False,False,False,False,False,False,False,False,True,False,False,False,True,False,False,False,False,False,False,False,True,False,False,False,False,False,False,0,-119.05,0,0.77,0.36,-0.38,-27920,-11360,-32800,-0.787506103515625,0.596038818359375,0.1566162109375,0,0.57,0,4,18,4,68,90,97,-15092,15506,8317,
1501306946,531,Enabled,MagRatePitch,None,True,True,True,False,True,True,False,False,False,False,False,False,False,False,False,False,False,False,False,False,False,True,False,False,False,True,False,False,False,False,False,False,False,True,False,False,False,False,False,False,0,-118.71,0,0.45,0.36,-0.55,-27640,-11750,-33140,-0.79937744140625,0.58038330078125,0.155181884765625,0,0.57,0,9,18,8,68,94,100,-15246,15393,8509,
1501306947,531,Enabled,MagRatePitch,None,True,True,True,False,True,True,False,False,False,False,False,False,False,False,False,False,False,False,False,False,False,True,False,False,False,True,False,False,False,False,False,False,False,True,False,False,False,False,False,False,0,-110.78,0,-6.93,2.75,-1.45,-19340,3120,-37070,-0.803375244140625,0.575347900390625,0.153411865234375,0,0.57,0,9,18,8,67,94,101,-16531,11820,1445,
1501306948,531,Enabled,MagRatePitch,None,True,True,True,False,True,True,False,False,False,False,False,False,False,False,False,False,False,False,False,False,False,True,False,False,False,True,False,False,False,False,False,False,False,True,False,False,False,False,False,False,0,-114.86,0,2.4,2.62,0.07,-27010,-13080,-32820,-0.801239013671875,0.581329345703125,0.141510009765625,0,0.55,0,4,16,4,66,92,99,-15122,15124,9134,
1501306949,531,Enabled,MagRatePitch,None,True,True,True,False,True,True,False,False,False,False,False,False,False,False,False,False,False,False,False,False,False,True,False,False,False,True,False,False,False,False,False,False,False,True,False,False,False,False,False,False,0,-116.22,0,2.74,2.49,0.69,-26730,-13570,-32890,-0.807098388671875,0.57806396484375,0.119964599609375,0,0.54,0,4,13,4,66,92,100,-15160,15005,9372,
1501306950,531,Enabled,MagRatePitch,None,True,True,True,False,True,True,False,False,False,False,False,False,False,False,False,False,False,False,False,False,False,True,False,False,False,True,False,False,False,False,False,False,False,True,False,False,False,False,False,False,0,-116.6,0,2.95,2.44,1.22,-26440,-14080,-32960,-0.8128662109375,0.572479248046875,0.1070556640625,0,0.54,0,4,12,4,65,93,100,-15195,14881,9613,
1501306951,531,Enabled,MagRatePitch,None,True,True,True,False,True,True,False,False,False,False,False,False,False,False,False,False,False,False,False,False,False,True,False,False,False,True,False,False,False,False,False,False,False,True,False,False,False,False,False,False,0,-116.64,0,3.13,2.43,1.61,-26150,-14500,-32970,-0.816925048828125,0.567901611328125,0.1004638671875,0,0.55,0,4,11,4,65,93,101,-15205,14761,9814,
1501306952,531,Enabled,MagRatePitch,None,True,True,True,False,True,True,False,False,False,False,False,False,False,False,False,False,False,False,False,False,False,True,False,False,False,True,False,False,False,False,False,False,False,True,False,False,False,False,False,False,0,-116.48,0,3.25,2.44,1.86,-25840,-14920,-33050,-0.821685791015625,0.5631103515625,0.087646484375,0,0.55,0,4,10,4,64,93,101,-15243,14629,10017,
1501306953,531,Enabled,MagRatePitch,None,True,True,True,False,True,True,False,False,False,False,False,False,False,False,False,False,False,False,False,False,False,True,False,False,False,True,False,False,False,False,False,False,False,True,False,False,False,False,False,False,0,-116.3,0,3.35,2.47,2.07,-25580,-15290,-33090,-0.828155517578125,0.557952880859375,0.052703857421875,0,0.55,0,4,6,4,63,94,101,-15264,14517,10190,
1501306954,531,Enabled,MagRatePitch,None,True,True,True,False,True,True,False,False,False,False,False,False,False,False,False,False,False,False,False,False,False,True,False,False,False,True,False,False,False,False,False,False,False,True,False,False,False,False,False,False,0,-116.09,0,3.43,2.5,2.23,-25280,-15640,-33130,-0.833221435546875,0.551788330078125,-0.03515625,0,0.55,0,4,3,4,62,94,102,-15283,14390,10358,
1501306955,531,Enabled,MagRatePitch,None,True,True,True,False,True,True,False,False,False,False,False,False,False,False,False,False,False,False,False,False,False,True,False,False,False,True,False,False,False,False,False,False,False,True,False,False,False,False,False,False,0,-115.86,0,3.48,2.55,2.36,-25020,-15940,-33230,-0.835906982421875,0.5477294921875,-0.035186767578125,0,0.56,0,4,3,4,62,95,102,-15330,14284,10505,
1501306956,531,Enabled,MagRatePitch,None,True,True,True,False,True,True,False,False,False,False,False,False,False,False,False,False,False,False,False,False,False,True,False,False,False,True,False,False,False,False,False,False,False,True,False,False,False,False,False,False,0,-115.62,0,3.53,2.6,2.47,-24730,-16210,-33260,-0.839569091796875,0.542083740234375,-0.035247802734375,0,0.56,0,4,3,4,61,95,103,-15343,14157,10631,
1501306957,531,Enabled,MagRatePitch,None,True,True,True,False,True,True,False,False,False,False,False,False,False,False,False,False,False,False,False,False,False,True,False,False,False,True,False,False,False,False,False,False,False,True,False,False,False,False,False,False,0,-115.34,0,3.53,2.66,2.56,-24440,-16410,-33370,-0.8427734375,0.53692626953125,-0.037384033203125,0,0.55,0,4,3,4,61,95,103,-15394,14037,10730,
1501306958,531,Enabled,MagRatePitch,None,True,True,True,False,True,True,False,False,False,False,False,False,False,False,False,False,False,False,False,False,False,True,False,False,False,True,False,False,False,False,False,False,False,True,False,False,False,False,False,False,0,-115.04,0,3.53,2.74,2.64,-24160,-16570,-33490,-0.846405029296875,0.53118896484375,-0.037445068359375,0,0.55,0,4,3,4,60,96,103,-15443,13919,10807,
1501306959,531,Enabled,MagRatePitch,None,True,True,True,False,True,True,False,False,False,False,False,False,False,False,False,False,False,False,False,False,False,True,False,False,False,True,False,False,False,False,False,False,False,True,False,False,False,False,False,False,0,-114.71,0,3.51,2.8,2.7,-23890,-16720,-33680,-0.8489990234375,0.52703857421875,-0.0374755859375,0,0.55,0,4,3,4,59,96,104,-15525,13807,10882,
1501306960,531,Enabled,MagRatePitch,None,True,True,True,False,True,True,False,False,False,False,False,False,False,False,False,False,False,False,False,False,False,True,False,False,False,True,False,False,False,False,False,False,False,True,False,False,False,False,False,False,0,-114.36,0,3.48,2.87,2.75,-23620,-16810,-33850,-0.8521728515625,0.521881103515625,-0.03741455078125,0,0.55,0,4,3,4,59,96,104,-15599,13691,10927,
1501306961,531,Enabled,MagRatePitch,None,True,True,True,False,True,True,False,False,False,False,False,False,False,False,False,False,False,False,False,False,False,True,False,False,False,True,False,False,False,False,False,False,False,True,False,False,False,False,False,False,0,-114.08,0,3.46,2.94,2.81,-23380,-16870,-33950,-0.855712890625,0.51605224609375,-0.0374755859375,0,0.56,0,4,3,4,58,97,104,-15640,13590,10958,
1501306962,531,Enabled,MagRatePitch,None,True,True,True,False,True,True,False,False,False,False,False,False,False,False,False,False,False,False,False,False,False,True,False,False,False,True,False,False,False,False,False,False,False,True,False,False,False,False,False,False,0,-113.73,0,3.39,3.01,2.85,-23130,-16860,-34210,-0.857269287109375,0.513458251953125,-0.037445068359375,0,0.56,0,4,3,4,58,97,104,-15753,13486,10954,
1501306963,531,Enabled,MagRatePitch,None,True,True,True,False,True,True,False,False,False,False,False,False,False,False,False,False,False,False,False,False,False,True,False,False,False,True,False,False,False,False,False,False,False,True,False,False,False,False,False,False,0,-113.4,0,3.35,3.08,2.89,-22870,-16820,-34370,-0.859130859375,0.510162353515625,-0.03973388671875,0,0.56,0,4,3,4,57,97,105,-15815,13379,10941,
1501306964,531,Enabled,MagRatePitch,None,True,True,True,False,True,True,False,False,False,False,False,False,False,False,False,False,False,False,False,False,False,True,False,False,False,True,False,False,False,False,False,False,False,True,False,False,False,False,False,False,0,-113.05,0,3.29,3.16,2.91,-22620,-16770,-34600,-0.86163330078125,0.50592041015625,-0.039764404296875,0,0.57,0,4,3,4,57,97,105,-15915,13275,10918,
1501306965,531,Enabled,MagRatePitch,None,True,True,True,False,True,True,False,False,False,False,False,False,False,False,False,False,False,False,False,False,False,True,False,False,False,True,False,False,False,False,False,False,False,True,False,False,False,False,False,False,0,-112.73,0,3.22,3.22,2.94,-22410,-16660,-34800,-0.8631591796875,0.503326416015625,-0.03973388671875,0,0.57,0,4,3,4,57,97,105,-15998,13186,10868,
1501306966,531,Enabled,MagRatePitch,None,True,True,True,False,True,True,False,False,False,False,False,False,False,False,False,False,False,False,False,False,False,True,False,False,False,True,False,False,False,False,False,False,False,True,False,False,False,False,False,False,0,-112.37,0,3.11,3.29,2.94,-22170,-16460,-35080,-0.865631103515625,0.499053955078125,-0.03973388671875,0,0.57,0,4,3,4,56,98,105,-16113,13088,10778,
1501306967,531,Enabled,MagRatePitch,None,True,True,True,False,True,True,False,False,False,False,False,False,False,False,False,False,False,False,False,False,False,True,False,False,False,True,False,False,False,False,False,False,False,True,False,False,False,False,False,False,0,-112.02,0,3.02,3.35,2.92,-21940,-16280,-35340,-0.8665771484375,0.497406005859375,-0.039764404296875,0,0.57,0,4,3,4,56,98,105,-16218,12993,10697,
1501306968,531,Enabled,MagRatePitch,None,True,True,True,False,True,True,False,False,False,False,False,False,False,False,False,False,False,False,False,False,False,True,False,False,False,True,False,False,False,False,False,False,False,True,False,False,False,False,False,False,0,-111.73,0,2.84,3.41,2.9,-21940,-15980,-35850,-0.868072509765625,0.494781494140625,-0.03973388671875,0,0.56,0,4,3,4,56,98,105,-16440,13001,10563,
1501306969,531,Enabled,MagRatePitch,None,True,True,True,False,True,True,False,False,False,False,False,False,False,False,False,False,False,False,False,False,False,True,False,False,False,True,False,False,False,False,False,False,False,True,False,False,False,False,False,False,0,-111.36,0,2.79,3.46,2.85,-21530,-15760,-35900,-0.8690185546875,0.49310302734375,-0.039794921875,0,0.56,0,4,3,4,55,98,105,-16451,12821,10457,
1501306970,531,Enabled,MagRatePitch,None,True,True,True,False,True,True,False,False,False,False,False,False,False,False,False,False,False,False,False,False,False,True,False,False,False,True,False,False,False,False,False,False,False,True,False,False,False,False,False,False,0,-111.05,0,2.63,3.5,2.79,-21350,-15410,-36170,-0.870513916015625,0.490478515625,-0.039764404296875,0,0.55,0,4,3,4,55,98,105,-16558,12747,10296,
1501306971,531,Enabled,MagRatePitch,None,True,True,True,False,True,True,False,False,False,False,False,False,False,False,False,False,False,False,False,False,False,True,False,False,False,True,False,False,False,False,False,False,False,True,False,False,False,False,False,False,0,-110.71,0,2.47,3.53,2.7,-21150,-15070,-36500,-0.870513916015625,0.490478515625,-0.039764404296875,0,0.56,0,4,3,4,55,98,105,-16696,12666,10141,
1501306972,531,Enabled,MagRatePitch,None,True,True,True,False,True,True,False,False,False,False,False,False,False,False,False,False,False,False,False,False,False,True,False,False,False,True,False,False,False,False,False,False,False,True,False,False,False,False,False,False,0,-110.42,0,2.28,3.55,2.59,-20950,-14640,-36750,-0.870513916015625,0.490478515625,-0.039764404296875,0,0.57,0,4,3,4,55,98,105,-16796,12582,9940,
1501306973,531,Enabled,MagRatePitch,None,True,True,True,False,True,True,False,False,False,False,False,False,False,False,False,False,False,False,False,False,False,True,False,False,False,True,False,False,False,False,False,False,False,True,False,False,False,False,False,False,0,-110.11,0,2.06,3.56,2.44,-20770,-14190,-37100,-0.870513916015625,0.490478515625,-0.039764404296875,0,0.58,0,4,3,4,55,98,105,-16937,12507,9733,
1501306974,531,Enabled,MagRatePitch,None,True,True,True,False,True,True,False,False,False,False,False,False,False,False,False,False,False,False,False,False,False,True,False,False,False,True,False,False,False,False,False,False,False,True,False,False,False,False,False,False,0,-109.82,0,1.81,3.55,2.26,-20610,-13700,-37450,-0.870513916015625,0.490478515625,-0.039764404296875,0,0.57,0,4,3,4,55,98,105,-17081,12444,9504,
1501306975,531,Enabled,MagRatePitch,None,True,True,True,False,True,True,False,False,False,False,False,False,False,False,False,False,False,False,False,False,False,True,False,False,False,True,False,False,False,False,False,False,False,True,False,False,False,False,False,False,0,-109.56,0,1.48,3.54,2.02,-20600,-13120,-38040,-0.871795654296875,0.478851318359375,0.103057861328125,0,0.57,0,9,12,8,55,101,108,-17329,12446,9237,
1501306976,531,Enabled,MagRatePitch,None,True,True,True,False,True,True,False,False,False,False,False,False,False,False,False,False,False,False,False,False,False,True,False,False,False,True,False,False,False,False,False,False,False,True,False,False,False,False,False,False,0,-109.34,0,1.28,3.5,1.78,-20280,-12620,-38020,-0.869659423828125,0.492218017578125,-0.037506103515625,0,0.57,0,4,3,4,55,98,105,-17303,12307,8996,
1501306977,531,Enabled,MagRatePitch,None,True,True,True,False,True,True,False,False,False,False,False,False,False,False,False,False,False,False,False,False,False,True,False,False,False,True,False,False,False,False,False,False,False,True,False,False,False,False,False,False,0,-109.09,0,0.95,3.45,1.5,-20100,-11990,-38380,-0.869659423828125,0.492218017578125,-0.037506103515625,0,0.57,0,4,3,4,55,98,105,-17447,12233,8705,
1501306978,531,Enabled,MagRatePitch,None,True,True,True,False,True,True,False,False,False,False,False,False,False,False,False,False,False,False,False,False,False,True,False,False,False,True,False,False,False,False,False,False,False,True,False,False,False,False,False,False,0,-108.89,0,0.61,3.39,1.18,-19980,-11370,-38710,-0.8681640625,0.49481201171875,-0.03753662109375,0,0.57,0,4,3,4,56,98,105,-17581,12184,8415,
1501306979,531,Enabled,MagRatePitch,None,True,True,True,False,True,True,False,False,False,False,False,False,False,False,False,False,False,False,False,False,False,True,False,False,False,True,False,False,False,False,False,False,False,True,False,False,False,False,False,False,0,-108.72,0,0.27,3.32,0.83,-19810,-10730,-38940,-0.867218017578125,0.496490478515625,-0.037506103515625,0,0.58,0,4,3,4,56,98,105,-17665,12113,8111,
1501306980,531,Enabled,MagRatePitch,None,True,True,True,False,True,True,False,False,False,False,False,False,False,False,False,False,False,False,False,False,False,True,False,False,False,True,False,False,False,False,False,False,False,True,False,False,False,False,False,False,0,-108.54,0,-0.11,3.25,0.44,-19660,-10020,-39260,-0.865692138671875,0.499114990234375,-0.03753662109375,0,0.6,0,4,3,4,56,98,105,-17787,12051,7777,
1501306981,531,Enabled,MagRatePitch,None,True,True,True,False,True,True,False,False,False,False,False,False,False,False,False,False,False,False,False,False,False,True,False,False,False,True,False,False,False,False,False,False,False,True,False,False,False,False,False,False,0,-108.36,0,-0.53,3.17,0.02,-19490,-9250,-39550,-0.863800048828125,0.502410888671875,-0.037445068359375,0,0.6,0,4,3,4,57,98,105,-17899,11980,7417,
1501306982,531,Enabled,MagRatePitch,None,True,True,True,False,True,True,False,False,False,False,False,False,False,False,False,False,False,False,False,False,False,True,False,False,False,True,False,False,False,False,False,False,False,True,False,False,False,False,False,False,0,-108.24,0,-0.95,3.09,-0.45,-19390,-8510,-39820,-0.862274169921875,0.5050048828125,-0.0374755859375,0,0.6,0,4,3,4,57,97,105,-18000,11938,7066,
1501306983,531,Enabled,MagRatePitch,None,True,True,True,False,True,True,False,False,False,False,False,False,False,False,False,False,False,False,False,False,False,True,False,False,False,True,False,False,False,False,False,False,False,True,False,False,False,False,False,False,0,-111.49,0,1.91,2.94,-0.12,-22890,-15680,-38250,-0.859771728515625,0.509246826171875,-0.0374755859375,0,0.6,0,4,3,4,57,97,104,-17516,13450,10476,
1501306984,531,Enabled,MagRatePitch,None,True,True,True,False,True,True,False,False,False,False,False,False,False,False,False,False,False,False,False,False,False,True,False,False,False,True,False,False,False,False,False,False,False,True,False,False,False,False,False,False,0,-109.26,0,-1.71,2.9,-0.02,-19130,-6920,-40270,-0.857330322265625,0.513519287109375,-0.035247802734375,0,0.59,0,4,3,4,58,97,104,-18163,11825,6314,
1501306985,531,Enabled,MagRatePitch,None,True,True,True,False,True,True,False,False,False,False,False,False,False,False,False,False,False,False,False,False,False,True,False,False,False,True,False,False,False,False,False,False,False,True,False,False,False,False,False,False,0,-108.38,0,-1.92,2.85,-0.62,-19000,-6090,-40530,-0.85479736328125,0.517730712890625,-0.035247802734375,0,0.58,0,4,3,4,58,97,104,-18257,11772,5924,
1501306986,531,Enabled,MagRatePitch,None,True,True,True,False,True,True,False,False,False,False,False,False,False,False,False,False,False,False,False,False,False,True,False,False,False,True,False,False,False,False,False,False,False,True,False,False,False,False,False,False,0,-108,0,-2.24,2.81,-1.28,-18860,-5250,-40710,-0.85223388671875,0.52191162109375,-0.03521728515625,0,0.57,0,4,3,4,59,96,104,-18319,11709,5526,
1501306987,531,Enabled,MagRatePitch,None,True,True,True,False,True,True,False,False,False,False,False,False,False,False,False,False,False,False,False,False,False,True,False,False,False,True,False,False,False,False,False,False,False,True,False,False,False,False,False,False,0,-107.83,0,-2.64,2.78,-1.93,-18880,-4380,-41180,-0.850830078125,0.51434326171875,0.107147216796875,0,0.58,0,9,12,8,60,99,106,-18511,11726,5118,
1501306988,531,Enabled,MagRatePitch,None,True,True,True,False,True,True,False,False,False,False,False,False,False,False,False,False,False,False,False,False,False,True,False,False,False,True,False,False,False,False,False,False,False,True,False,False,False,False,False,False,0,-107.69,0,-3.01,2.8,-2.53,-18600,-3520,-41080,-0.8446044921875,0.53009033203125,0.07476806640625,0,0.59,0,4,8,4,60,96,103,-18440,11600,4703,
1501306989,531,Enabled,MagRatePitch,None,True,True,True,False,True,True,False,False,False,False,False,False,False,False,False,False,False,False,False,False,False,True,False,False,False,True,False,False,False,False,False,False,False,True,False,False,False,False,False,False,0,-107.56,0,-3.44,2.85,-3.13,-18460,-2610,-41230,-0.839630126953125,0.534881591796875,0.09423828125,0,0.58,0,4,10,4,61,95,102,-18486,11537,4273,
1501306990,531,Enabled,MagRatePitch,None,True,True,True,False,True,True,False,False,False,False,False,False,False,False,False,False,False,False,False,False,False,True,False,False,False,True,False,False,False,False,False,False,False,True,False,False,False,False,False,False,0,-107.45,0,-3.87,2.95,-3.75,-18340,-1750,-41340,-0.834808349609375,0.54119873046875,0.10076904296875,0,0.57,0,4,11,4,61,95,102,-18515,11483,3862,
1501306991,531,Enabled,MagRatePitch,None,True,True,True,False,True,True,False,False,False,False,False,False,False,False,False,False,False,False,False,False,False,True,False,False,False,True,False,False,False,False,False,False,False,True,False,False,False,False,False,False,0,-107.28,0,-4.33,3.11,-4.36,-18180,-840,-41500,-0.83111572265625,0.5460205078125,0.105255126953125,0,0.57,0,4,12,4,62,94,102,-18565,11412,3432,
1501306992,531,Enabled,MagRatePitch,None,True,True,True,False,True,True,False,False,False,False,False,False,False,False,False,False,False,False,False,False,False,True,False,False,False,True,False,False,False,False,False,False,False,True,False,False,False,False,False,False,0,-107.14,0,-4.82,3.34,-5.02,-18050,30,-41530,-0.82684326171875,0.55120849609375,0.111541748046875,0,0.59,0,4,12,4,63,94,101,-18556,11354,3009,
1501306993,531,Enabled,MagRatePitch,None,True,True,True,False,True,True,False,False,False,False,False,False,False,False,False,False,False,False,False,False,False,True,False,False,False,True,False,False,False,False,False,False,False,True,False,False,False,False,False,False,0,-106.95,0,-5.34,3.65,-5.7,-17900,930,-41580,-0.82159423828125,0.55718994140625,0.12017822265625,0,0.58,0,4,13,4,63,94,101,-18557,11285,2579,
1501306994,531,Enabled,MagRatePitch,None,True,True,True,False,True,True,False,False,False,False,False,False,False,False,False,False,False,False,False,False,False,True,False,False,False,True,False,False,False,False,False,False,False,True,False,False,False,False,False,False,0,-106.71,0,-5.86,4.05,-6.4,-17750,1770,-41680,-0.8157958984375,0.562774658203125,0.133056640625,0,0.57,0,4,15,4,64,93,100,-18581,11221,2178,
1501306995,531,Enabled,MagRatePitch,None,True,True,True,False,True,True,False,False,False,False,False,False,False,False,False,False,False,False,False,False,False,True,False,False,False,True,False,False,False,False,False,False,False,True,False,False,False,False,False,False,0,-106.41,0,-6.45,4.56,-7.13,-17570,2660,-41680,-0.809326171875,0.56781005859375,0.150115966796875,0,0.56,0,4,17,4,65,93,100,-18560,11140,1751,
1501306996,531,Enabled,MagRatePitch,None,True,True,True,False,True,True,False,False,False,False,False,False,False,False,False,False,False,False,False,False,False,True,False,False,False,True,False,False,False,False,False,False,False,True,False,False,False,False,False,False,0,-106.06,0,-7.09,5.19,-7.91,-17400,3530,-41700,-0.80322265625,0.57464599609375,0.156707763671875,0,0.56,0,4,18,4,66,92,99,-18548,11064,1336,
1501306997,531,Enabled,MagRatePitch,None,True,True,True,False,True,True,False,False,False,False,False,False,False,False,False,False,False,False,False,False,False,True,False,False,False,True,False,False,False,False,False,False,False,True,False,False,False,False,False,False,0,-105.68,0,-7.81,5.98,-8.75,-17260,4430,-41650,-0.802093505859375,0.583526611328125,0.126739501953125,0,0.56,0,4,14,4,66,91,98,-18502,10995,904,
1501306998,531,Enabled,MagRatePitch,None,True,True,True,False,True,True,False,False,False,False,False,False,False,False,False,False,False,False,False,False,False,True,False,False,False,True,False,False,False,False,False,False,False,True,False,False,False,False,False,False,0,-105.17,0,-8.54,6.94,-9.58,-17070,5210,-41660,-0.798919677734375,0.590972900390625,0.111602783203125,0,0.55,0,4,12,4,67,91,98,-18489,10911,532,
1501306999,531,Enabled,MagRatePitch,None,True,True,True,False,True,True,False,False,False,False,False,False,False,False,False,False,False,False,False,False,False,True,False,False,False,True,False,False,False,False,False,False,False,True,False,False,False,False,False,False,0,-104.59,0,-9.38,8.09,-10.44,-16900,6020,-41630,-0.7930908203125,0.60028076171875,0.10296630859375,0,0.54,0,4,11,4,68,90,97,-18455,10836,141,
1501307000,531,Enabled,MagRatePitch,None,True,True,True,False,True,True,False,False,False,False,False,False,False,False,False,False,False,False,False,False,False,True,False,False,False,True,False,False,False,False,False,False,False,True,False,False,False,False,False,False,0,-103.86,0,-10.28,7.84,-11.27,-16700,6850,-41630,-0.787994384765625,0.608001708984375,0.0965576171875,0,0.53,0,4,11,4,69,89,96,-18432,10745,-253,
1501307001,531,Enabled,MagRatePitch,None,True,True,True,False,True,True,False,False,False,False,False,False,False,False,False,False,False,False,False,False,False,True,False,False,False,True,False,False,False,False,False,False,False,True,False,False,False,False,False,False,0,-103.62,0,-11.02,7.97,-12.07,-16530,7610,-41570,-0.78228759765625,0.613555908203125,0.10736083984375,0,0.51,0,4,12,4,70,89,95,-18387,10667,-618,
1501307002,531,Enabled,MagRatePitch,None,True,True,True,False,True,True,False,False,False,False,False,False,False,False,False,False,False,False,False,False,False,True,False,False,False,True,False,False,False,False,False,False,False,True,False,False,False,False,False,False,0,-103.42,0,-11.67,8.37,-12.71,-16440,8300,-41720,-0.77777099609375,0.6072998046875,0.16192626953125,0,0.5,0,8,19,8,71,91,96,-18439,10626,-949,
1501307003,531,Enabled,MagRatePitch,None,True,True,True,False,True,True,False,False,False,False,False,False,False,False,False,False,False,False,False,False,False,True,False,False,False,True,False,False,False,False,False,False,False,True,False,False,False,False,False,False,0,-103.1,0,-12.32,8.96,-13.2,-16100,9010,-41410,-0.76556396484375,0.6259765625,0.1483154296875,0,0.46,0,4,17,4,71,87,93,-18277,10472,-1297,
1501307004,531,Enabled,MagRatePitch,None,True,True,True,False,True,True,False,False,False,False,False,False,False,False,False,False,False,False,False,False,False,True,False,False,False,True,False,False,False,False,False,False,False,True,False,False,False,False,False,False,0,-102.69,0,-12.9,9.66,-13.57,-15910,9710,-41370,-0.758697509765625,0.632232666015625,0.156951904296875,0,0.43,0,4,18,4,72,87,92,-18242,10386,-1631,
1501307005,531,Enabled,MagRatePitch,None,True,True,True,False,True,True,False,False,False,False,False,False,False,False,False,False,False,False,False,False,False,True,False,False,False,True,False,False,False,False,False,False,False,True,False,False,False,False,False,False,0,-102.23,0,-13.41,10.41,-13.82,-15700,10330,-41270,-0.750640869140625,0.639678955078125,0.16534423828125,0,0.43,0,4,19,4,73,86,91,-18181,10291,-1932,
1501307006,531,Enabled,MagRatePitch,None,True,True,True,False,True,True,False,False,False,False,False,False,False,False,False,False,False,False,False,False,False,True,False,False,False,True,False,False,False,False,False,False,False,True,False,False,False,False,False,False,0,-101.69,0,-13.85,11.17,-13.89,-15450,10980,-41200,-0.742828369140625,0.64697265625,0.172088623046875,0,0.46,0,4,19,4,74,85,90,-18132,10179,-2242,
1501307007,531,Enabled,MagRatePitch,None,True,True,True,False,True,True,False,False,False,False,False,False,False,False,False,False,False,False,False,False,False,True,False,False,False,True,False,False,False,False,False,False,False,True,False,False,False,False,False,False,0,-101.21,0,-14.21,11.84,-13.86,-15270,11530,-41100,-0.735107421875,0.654632568359375,0.1761474609375,0,0.47,0,4,20,4,75,84,89,-18073,10100,-2510,
1501307008,531,Enabled,MagRatePitch,None,True,True,True,False,True,True,False,False,False,False,False,False,False,False,False,False,False,False,False,False,False,True,False,False,False,True,False,False,False,False,False,False,False,True,False,False,False,False,False,False,0,-100.69,0,-14.45,12.45,-13.63,-15010,12100,-41060,-0.7286376953125,0.661224365234375,0.1783447265625,0,0.46,0,4,20,4,76,83,88,-18038,9985,-2785,
1501307009,531,Enabled,MagRatePitch,None,True,True,True,False,True,True,False,False,False,False,False,False,False,False,False,False,False,False,False,False,False,True,False,False,False,True,False,False,False,False,False,False,False,True,False,False,False,False,False,False,0,-100.23,0,-14.53,12.89,-13.25,-14760,12580,-40930,-0.72137451171875,0.6690673828125,0.1787109375,0,0.43,0,4,20,4,76,82,88,-17966,9869,-3018,
1501307010,531,Enabled,MagRatePitch,None,True,True,True,False,True,True,False,False,False,False,False,False,False,False,False,False,False,False,False,False,False,True,False,False,False,True,False,False,False,False,False,False,False,True,False,False,False,False,False,False,0,-99.84,0,-14.47,13.14,-12.76,-14540,13070,-40930,-0.713714599609375,0.676727294921875,0.18060302734375,0,0.42,0,4,20,4,77,82,87,-17952,9773,-3254,
1501307011,531,Enabled,MagRatePitch,None,True,True,True,False,True,True,False,False,False,False,False,False,False,False,False,False,False,False,False,False,False,True,False,False,False,True,False,False,False,False,False,False,False,True,False,False,False,False,False,False,0,-93.93,0,-15.76,15.36,-7.74,-8230,26390,-44290,-0.7117919921875,0.671417236328125,0.206085205078125,0,0.42,0,8,24,8,79,83,88,-19054,7056,-9575,
1501307012,531,Enabled,MagRatePitch,None,True,True,True,False,True,True,False,False,False,False,False,False,False,False,False,False,False,False,False,False,False,True,False,False,False,True,False,False,False,False,False,False,False,True,False,False,False,False,False,False,0,-96.86,0,-10.55,10.91,-7.29,-14020,13850,-40890,-0.69842529296875,0.69189453125,0.182769775390625,0,0.42,0,4,21,4,79,80,85,-17909,9545,-3628,
1501307013,531,Enabled,MagRatePitch,None,True,True,True,False,True,True,False,False,False,False,False,False,False,False,False,False,False,False,False,False,False,True,False,False,False,True,False,False,False,False,False,False,False,True,False,False,False,False,False,False,0,-99.38,0,-9.66,9.7,-7.74,-13780,14190,-40790,-0.690765380859375,0.699493408203125,0.18304443359375,0,0.42,0,4,21,4,80,79,84,-17852,9438,-3793,
1501307014,531,Enabled,MagRatePitch,None,True,True,True,False,True,True,False,False,False,False,False,False,False,False,False,False,False,False,False,False,False,True,False,False,False,True,False,False,False,False,False,False,False,True,False,False,False,False,False,False,0,-100.54,0,-9.07,8.96,-7.55,-13520,14500,-40820,-0.682220458984375,0.7083740234375,0.180908203125,0,0.41,0,4,20,4,81,78,83,-17856,9327,-3944,
1501307015,531,Enabled,MagRatePitch,None,True,True,True,False,True,True,False,False,False,False,False,False,False,False,False,False,False,False,False,False,False,True,False,False,False,True,False,False,False,False,False,False,False,True,False,False,False,False,False,False,0,-101.13,0,-8.49,8.3,-7.38,-13260,14740,-40790,-0.675811767578125,0.715057373046875,0.178741455078125,0,0.4,0,4,20,4,82,77,82,-17831,9212,-4060,
1501307016,531,Enabled,MagRatePitch,None,True,True,True,False,True,True,False,False,False,False,False,False,False,False,False,False,False,False,False,False,False,True,False,False,False,True,False,False,False,False,False,False,False,True,False,False,False,False,False,False,0,-101.45,0,-7.94,7.75,-7.25,-12990,14940,-40750,-0.668121337890625,0.72271728515625,0.176849365234375,0,0.4,0,4,20,4,82,76,81,-17806,9092,-4156,
1501307017,531,Enabled,MagRatePitch,None,True,True,True,False,True,True,False,False,False,False,False,False,False,False,False,False,False,False,False,False,False,True,False,False,False,True,False,False,False,False,False,False,False,True,False,False,False,False,False,False,0,-101.64,0,-7.41,7.25,-7.09,-12730,15070,-40840,-0.659271240234375,0.7313232421875,0.17462158203125,0,0.39,0,4,20,4,83,75,80,-17837,8982,-4217,
1501307018,531,Enabled,MagRatePitch,None,True,True,True,False,True,True,False,False,False,False,False,False,False,False,False,False,False,False,False,False,False,True,False,False,False,True,False,False,False,False,False,False,False,True,False,False,False,False,False,False,0,-101.74,0,-6.84,6.76,-6.88,-12540,15070,-41180,-0.652862548828125,0.738037109375,0.170318603515625,0,0.39,0,4,19,4,84,74,79,-17985,8907,-4212,
1501307019,531,Enabled,MagRatePitch,None,True,True,True,False,True,True,False,False,False,False,False,False,False,False,False,False,False,False,False,False,False,True,False,False,False,True,False,False,False,False,False,False,False,True,False,False,False,False,False,False,0,-101.81,0,-6.51,7.22,-6.75,-12150,15290,-40880,-0.6451416015625,0.7457275390625,0.16619873046875,0,0.37,0,4,19,4,85,73,78,-17840,8734,-4324,
1501307020,531,Enabled,MagRatePitch,None,True,True,True,False,True,True,False,False,False,False,False,False,False,False,False,False,False,False,False,False,False,True,False,False,False,True,False,False,False,False,False,False,False,True,False,False,False,False,False,False,0,-101.52,0,-6.1,7.69,-6.53,-11910,15300,-41030,-0.63751220703125,0.753631591796875,0.159912109375,0,0.36,0,4,18,4,86,72,77,-17901,8631,-4330,
1501307021,531,Enabled,MagRatePitch,None,True,True,True,False,True,True,False,False,False,False,False,False,False,False,False,False,False,False,False,False,False,True,False,False,False,True,False,False,False,False,False,False,False,True,False,False,False,False,False,False,0,-101.05,0,-5.67,6.97,-6.27,-11570,15280,-41090,-0.631072998046875,0.7603759765625,0.15338134765625,0,0.36,0,4,17,4,86,72,76,-17926,8487,-4320,
1501307022,531,Enabled,MagRatePitch,None,True,True,True,False,True,True,False,False,False,False,False,False,False,False,False,False,False,False,False,False,False,True,False,False,False,True,False,False,False,False,False,False,False,True,False,False,False,False,False,False,0,-100.85,0,-5.12,7.4,-5.99,-11170,15230,-41320,-0.623626708984375,0.7685546875,0.142730712890625,0,0.39,0,4,16,4,87,71,75,-18019,8318,-4291,
1501307023,531,Enabled,MagRatePitch,None,True,True,True,False,True,True,False,False,False,False,False,False,False,False,False,False,False,False,False,False,False,True,False,False,False,True,False,False,False,False,False,False,False,True,False,False,False,False,False,False,0,-105.86,0,0.12,2.59,-3.02,-16400,3240,-38470,-0.617340087890625,0.775543212890625,0.131805419921875,0,0.45,0,4,15,4,88,70,74,-17099,10573,1401,
1501307024,531,Enabled,MagRatePitch,None,True,True,True,False,True,True,False,False,False,False,False,False,False,False,False,False,False,False,False,False,False,True,False,False,False,True,False,False,False,False,False,False,False,True,False,False,False,False,False,False,0,-103.57,0,-4.21,2.43,-3.18,-10220,14990,-41660,-0.609405517578125,0.783203125,0.123199462890625,0,0.53,0,4,14,4,89,69,73,-18158,7915,-4171,
1501307025,531,Enabled,MagRatePitch,None,True,True,True,False,True,True,False,False,False,False,False,False,False,False,False,False,False,False,False,False,False,True,False,False,False,True,False,False,False,False,False,False,False,True,False,False,False,False,False,False,0,-102.31,0,-3.24,2.7,-2.6,-9670,14830,-41890,-0.602996826171875,0.790069580078125,0.110015869140625,0,0.61,0,4,12,4,89,68,26,-18257,7680,-4095,
1501307026,531,Enabled,MagRatePitch,None,True,True,True,False,True,True,False,False,False,False,False,False,False,False,False,False,False,False,False,False,False,True,False,False,False,True,False,False,False,False,False,False,False,True,False,False,False,False,False,False,0,-101.35,0,-2.49,2.8,-2.31,-9060,14650,-42070,-0.596343994140625,0.797332763671875,0.092742919921875,0,0.68,0,4,10,4,90,67,4,-18327,7423,-4005,
1501307027,531,Enabled,MagRatePitch,None,True,True,True,False,True,True,False,False,False,False,False,False,False,False,False,False,False,False,False,False,False,True,False,False,False,True,False,False,False,False,False,False,False,True,False,False,False,False,False,False,0,-100.6,0,-1.84,2.88,-2.11,-8600,14350,-42530,-0.6009521484375,0.789031982421875,0.127532958984375,0,0.76,0,8,14,7,91,69,13,-18531,7231,-3854,
1501307028,531,Enabled,MagRatePitch,None,True,True,True,False,True,True,False,False,False,False,False,False,False,False,False,False,False,False,False,False,False,True,False,False,False,True,False,False,False,False,False,False,False,True,False,False,False,False,False,False,0,-99.61,0,-1.45,2.97,-1.96,-7680,14260,-42590,-0.58233642578125,0.810394287109375,0.064208984375,0,0.83,0,4,7,4,91,65,59,-18544,6837,-3813,
1501307029,531,Enabled,MagRatePitch,None,True,True,True,False,True,True,False,False,False,False,False,False,False,False,False,False,False,False,False,False,False,True,False,False,False,True,False,False,False,False,False,False,False,True,False,False,False,False,False,False,0,-98.63,0,-1.06,3.04,-1.81,-6890,14020,-42800,-0.57470703125,0.81658935546875,0.053253173828125,0,0.9,0,4,6,4,92,64,69,-18629,6501,-3697,
1501307030,531,Enabled,MagRatePitch,None,True,True,True,False,True,True,False,False,False,False,False,False,False,False,False,False,False,False,False,False,False,True,False,False,False,True,False,False,False,False,False,False,False,True,False,False,False,False,False,False,0,-97.66,0,-0.77,3.06,-1.7,-6090,13800,-42990,-0.568389892578125,0.821533203125,0.044403076171875,0,0.97,0,4,5,4,92,64,69,-18702,6157,-3592,
1501307031,531,Enabled,MagRatePitch,None,True,True,True,False,True,True,False,False,False,False,False,False,False,False,False,False,False,False,False,False,False,True,False,False,False,True,False,False,False,False,False,False,False,True,False,False,False,False,False,False,0,-96.62,0,-0.52,3.06,-1.6,-5190,13570,-43240,-0.558868408203125,0.828277587890625,0.040069580078125,0,1.06,0,4,4,4,93,62,68,-18801,5776,-3483,
1501307032,531,Enabled,MagRatePitch,None,True,True,True,False,True,True,False,False,False,False,False,False,False,False,False,False,False,False,False,False,False,True,False,False,False,True,False,False,False,False,False,False,False,True,False,False,False,False,False,False,0,-95.85,0,-0.38,3.03,-1.58,-4640,13480,-43550,-0.565277099609375,0.8184814453125,0.102569580078125,0,1.14,0,9,11,7,93,64,69,-18933,5543,-3436,
1501307033,531,Enabled,MagRatePitch,None,True,True,True,False,True,True,False,False,False,False,False,False,False,False,False,False,False,False,False,False,False,True,False,False,False,True,False,False,False,False,False,False,False,True,False,False,False,False,False,False,0,-94.64,0,-0.22,3.01,-1.49,-3400,13180,-43560,-0.542388916015625,0.839263916015625,-0.037933349609375,0,1.18,0,4,3,4,94,60,66,-18919,5011,-3297,
1501307034,531,Enabled,MagRatePitch,None,True,True,True,False,True,True,False,False,False,False,False,False,False,False,False,False,False,False,False,False,False,True,False,False,False,True,False,False,False,False,False,False,False,True,False,False,False,False,False,False,0,-93.53,0,-0.09,2.97,-1.43,-2490,12960,-43730,-0.533966064453125,0.844512939453125,-0.040191650390625,0,1.18,0,4,3,4,94,59,65,-18983,4620,-3190,
1501307035,531,Enabled,MagRatePitch,None,True,True,True,False,True,True,False,False,False,False,False,False,False,False,False,False,False,False,False,False,False,True,False,False,False,True,False,False,False,False,False,False,False,True,False,False,False,False,False,False,0,-90.66,0,-1.51,2.97,-2.49,580,17850,-45270,-0.5380859375,0.8367919921875,0.10101318359375,0,1.18,0,9,11,7,95,61,66,-19511,3299,-5511,
1501307036,531,Enabled,MagRatePitch,None,True,True,True,False,True,True,False,False,False,False,False,False,False,False,False,False,False,False,False,False,False,True,False,False,False,True,False,False,False,False,False,False,False,True,False,False,False,False,False,False,0,-90.75,0,0.43,2.99,-1.15,-660,12590,-43940,-0.514556884765625,0.85614013671875,-0.04718017578125,0,1.21,0,5,3,4,95,57,63,-19055,3838,-3017,
1501307037,531,Enabled,MagRatePitch,None,True,True,True,False,True,True,False,False,False,False,False,False,False,False,False,False,False,False,False,False,False,True,False,False,False,True,False,False,False,False,False,False,False,True,False,False,False,False,False,False,0,-90.12,0,0.38,2.89,-1.22,250,12450,-44060,-0.50408935546875,0.8619384765625,-0.053985595703125,0,1.25,0,6,3,4,95,56,61,-19094,3441,-2952,
1501307038,531,Enabled,MagRatePitch,None,True,True,True,False,True,True,False,False,False,False,False,False,False,False,False,False,False,False,False,False,False,True,False,False,False,True,False,False,False,False,False,False,False,True,False,False,False,False,False,False,0,-89.26,0,0.34,2.84,-1.24,1150,12290,-44080,-0.493499755859375,0.867584228515625,-0.060821533203125,0,1.25,0,6,3,4,96,54,60,-19090,3056,-2877,
1501307039,531,Enabled,MagRatePitch,None,True,True,True,False,True,True,False,False,False,False,False,False,False,False,False,False,False,False,False,False,False,True,False,False,False,True,False,False,False,False,False,False,False,True,False,False,False,False,False,False,0,-88.55,0,0.35,2.78,-1.23,1780,12070,-44300,-0.483673095703125,0.872406005859375,-0.070037841796875,0,1.24,0,7,3,4,96,53,59,-19180,2788,-2773,
1501307040,531,Enabled,MagRatePitch,None,True,True,True,False,True,True,False,False,False,False,False,False,False,False,False,False,False,False,False,False,False,True,False,False,False,True,False,False,False,False,False,False,False,True,False,False,False,False,False,False,0,-87.41,0,0.29,2.74,-1.3,2960,12000,-44110,-0.473541259765625,0.877197265625,-0.07891845703125,0,1.22,0,8,3,4,97,52,58,-19075,2273,-2746,
1501307041,531,Enabled,MagRatePitch,None,True,True,True,False,True,True,False,False,False,False,False,False,False,False,False,False,False,False,False,False,False,True,False,False,False,True,False,False,False,False,False,False,False,True,False,False,False,False,False,False,0,-87.13,0,0.83,2.68,-0.75,2900,10030,-43610,-0.46343994140625,0.8817138671875,-0.088165283203125,0,1.21,0,9,3,4,97,51,56,-18896,2298,-1814,
1501307042,531,Enabled,MagRatePitch,None,True,True,True,False,True,True,False,False,False,False,False,False,False,False,False,False,False,False,False,False,False,True,False,False,False,True,False,False,False,False,False,False,False,True,False,False,False,False,False,False,0,-85.63,0,0.14,2.63,-1.45,4770,11800,-44120,-0.45050048828125,0.887420654296875,-0.097320556640625,0,1.2,0,10,3,4,98,49,55,-19052,1494,-2657,
1501307043,531,Enabled,MagRatePitch,None,True,True,True,False,True,True,False,False,False,False,False,False,False,False,False,False,False,False,False,False,False,True,False,False,False,True,False,False,False,False,False,False,False,True,False,False,False,False,False,False,0,-84.43,0,0.18,2.61,-1.44,5690,11700,-44050,-0.43817138671875,0.892242431640625,-0.10894775390625,0,1.21,0,12,3,4,98,48,53,-19006,1097,-2614,
1501307044,531,Enabled,MagRatePitch,None,True,True,True,False,True,True,False,False,False,False,False,False,False,False,False,False,False,False,False,False,False,True,False,False,False,True,False,False,False,False,False,False,False,True,False,False,False,False,False,False,0,-83.36,0,0.21,2.57,-1.46,6580,11630,-43970,-0.42388916015625,0.897918701171875,-0.118499755859375,0,1.22,0,13,3,4,98,46,52,-18960,709,-2586,
1501307045,531,Enabled,MagRatePitch,None,True,True,True,False,True,True,False,False,False,False,False,False,False,False,False,False,False,False,False,False,False,True,False,False,False,True,False,False,False,False,False,False,False,True,False,False,False,False,False,False,0,-82.32,0,0.25,2.53,-1.47,7500,11560,-43900,-0.410400390625,0.90289306640625,-0.127655029296875,0,1.24,0,14,3,4,99,45,50,-18913,311,-2558,
1501307046,531,Enabled,MagRatePitch,None,True,True,True,False,True,True,False,False,False,False,False,False,False,False,False,False,False,False,False,False,False,True,False,False,False,True,False,False,False,False,False,False,False,True,False,False,False,False,False,False,0,-81.29,0,0.29,2.49,-1.47,8420,11460,-43790,-0.397613525390625,0.9072265625,-0.1370849609375,0,1.25,0,15,3,4,99,43,49,-18848,-87,-2517,
1501307047,531,Enabled,MagRatePitch,None,True,True,True,False,True,True,False,False,False,False,False,False,False,False,False,False,False,False,False,False,False,True,False,False,False,True,False,False,False,False,False,False,False,True,False,False,False,False,False,False,0,-80.3,0,0.31,2.45,-1.5,9290,11440,-43610,-0.382720947265625,0.912139892578125,-0.14666748046875,0,1.26,0,16,3,4,99,41,47,-18752,-463,-2514,
1501307048,531,Enabled,MagRatePitch,None,True,True,True,False,True,True,False,False,False,False,False,False,False,False,False,False,False,False,False,False,False,True,False,False,False,True,False,False,False,False,False,False,False,True,False,False,False,False,False,False,0,-79.31,0,0.34,2.42,-1.51,10160,11360,-43420,-0.369598388671875,0.91595458984375,-0.156097412109375,0,1.25,0,17,3,4,99,40,46,-18655,-843,-2486,
1501307049,531,Enabled,MagRatePitch,None,True,True,True,False,True,True,False,False,False,False,False,False,False,False,False,False,False,False,False,False,False,True,False,False,False,True,False,False,False,False,False,False,False,True,False,False,False,False,False,False,0,-78.69,0,0.41,2.37,-1.5,10630,11200,-43430,-0.374176025390625,0.909423828125,-0.181427001953125,0,1.24,0,20,11,8,100,41,47,-18654,-1047,-2409,
1501307050,531,Enabled,MagRatePitch,None,True,True,True,False,True,True,False,False,False,False,False,False,False,False,False,False,False,False,False,False,False,True,False,False,False,True,False,False,False,False,False,False,False,True,False,False,False,False,False,False,0,-77.46,0,0.39,2.33,-1.55,11940,11290,-43110,-0.338409423828125,0.925445556640625,-0.17034912109375,0,1.23,0,18,3,4,100,36,43,-18487,-1619,-2466,
1501307051,531,Enabled,MagRatePitch,None,True,True,True,False,True,True,False,False,False,False,False,False,False,False,False,False,False,False,False,False,False,True,False,False,False,True,False,False,False,False,False,False,False,True,False,False,False,False,False,False,0,-76.39,0,0.42,2.3,-1.56,12810,11260,-42910,-0.32293701171875,0.929595947265625,-0.1776123046875,0,1.22,0,19,3,4,100,35,41,-18383,-1997,-2458,
1501307052,531,Enabled,MagRatePitch,None,True,True,True,False,True,True,False,False,False,False,False,False,False,False,False,False,False,False,False,False,False,True,False,False,False,True,False,False,False,False,False,False,False,True,False,False,False,False,False,False,0,-75.37,0,0.45,2.26,-1.56,13690,11220,-42680,-0.30743408203125,0.933868408203125,-0.182586669921875,0,1.22,0,19,3,4,101,33,40,-18267,-2381,-2449,
1501307053,531,Enabled,MagRatePitch,None,True,True,True,False,True,True,False,False,False,False,False,False,False,False,False,False,False,False,False,False,False,True,False,False,False,True,False,False,False,False,False,False,False,True,False,False,False,False,False,False,0,-74.37,0,0.48,2.23,-1.58,14550,11230,-42450,-0.291656494140625,0.937469482421875,-0.189788818359375,0,1.24,0,20,3,4,101,31,38,-18149,-2758,-2460,
1501307054,531,Enabled,MagRatePitch,None,True,True,True,False,True,True,False,False,False,False,False,False,False,False,False,False,False,False,False,False,False,True,False,False,False,True,False,False,False,False,False,False,False,True,False,False,False,False,False,False,0,-73.4,0,0.5,2.19,-1.6,15390,11250,-42170,-0.2760009765625,0.941650390625,-0.1925048828125,0,1.26,0,20,3,4,101,29,37,-18011,-3122,-2482,
1501307055,531,Enabled,MagRatePitch,None,True,True,True,False,True,True,False,False,False,False,False,False,False,False,False,False,False,False,False,False,False,True,False,False,False,True,False,False,False,False,False,False,False,True,False,False,False,False,False,False,0,-72.43,0,0.54,2.15,-1.6,16250,11240,-41930,-0.262237548828125,0.944610595703125,-0.197265625,0,1.26,0,21,3,4,101,28,35,-17886,-3498,-2485,
1501307056,531,Enabled,MagRatePitch,None,True,True,True,False,True,True,False,False,False,False,False,False,False,False,False,False,False,False,False,False,False,True,False,False,False,True,False,False,False,False,False,False,False,True,False,False,False,False,False,False,0,-71.44,0,0.56,2.12,-1.6,17080,11240,-41570,-0.246368408203125,0.948333740234375,-0.19989013671875,0,1.25,0,21,3,3,102,26,34,-17712,-3864,-2497,
1501307057,531,Enabled,MagRatePitch,None,True,True,True,False,True,True,False,False,False,False,False,False,False,False,False,False,False,False,False,False,False,True,False,False,False,True,False,False,False,False,False,False,False,True,False,False,False,False,False,False,0,-70.46,0,0.6,2.08,-1.59,17920,11230,-41250,-0.230377197265625,0.9517822265625,-0.20245361328125,0,1.24,0,21,3,4,102,24,32,-17557,-4231,-2501,
1501307058,531,Enabled,MagRatePitch,None,True,True,True,False,True,True,False,False,False,False,False,False,False,False,False,False,False,False,False,False,False,True,False,False,False,True,False,False,False,False,False,False,False,True,False,False,False,False,False,False,0,-69.45,0,0.62,2.04,-1.6,18760,11260,-40860,-0.21429443359375,0.95501708984375,-0.2049560546875,0,1.25,0,22,3,4,102,23,31,-17369,-4600,-2524,
1501307059,531,Enabled,MagRatePitch,None,True,True,True,False,True,True,False,False,False,False,False,False,False,False,False,False,False,False,False,False,False,True,False,False,False,True,False,False,False,False,False,False,False,True,False,False,False,False,False,False,0,-68.48,0,0.65,2.01,-1.59,19590,11270,-40560,-0.200439453125,0.957977294921875,-0.205108642578125,0,1.25,0,22,3,4,102,21,29,-17219,-4964,-2543,
1501307060,531,Enabled,MagRatePitch,None,True,True,True,False,True,True,False,False,False,False,False,False,False,False,False,False,False,False,False,False,False,True,False,False,False,True,False,False,False,False,False,False,False,True,False,False,False,False,False,False,0,-67.5,0,0.68,1.97,-1.59,20400,11300,-40190,-0.18695068359375,0.9605712890625,-0.205657958984375,0,1.25,0,22,3,4,102,20,28,-17039,-5323,-2565,
1501307061,531,Enabled,MagRatePitch,None,True,True,True,False,True,True,False,False,False,False,False,False,False,False,False,False,False,False,False,False,False,True,False,False,False,True,False,False,False,False,False,False,False,True,False,False,False,False,False,False,0,-66.52,0,0.71,1.94,-1.58,21200,11310,-39780,-0.1729736328125,0.963165283203125,-0.205718994140625,0,1.24,0,22,3,4,103,18,27,-16845,-5675,-2583,
1501307062,531,Enabled,MagRatePitch,None,True,True,True,False,True,True,False,False,False,False,False,False,False,False,False,False,False,False,False,False,False,True,False,False,False,True,False,False,False,False,False,False,False,True,False,False,False,False,False,False,0,-65.54,0,0.73,1.9,-1.57,22000,11340,-39360,-0.1590576171875,0.966064453125,-0.2034912109375,0,1.23,0,21,3,4,103,17,25,-16643,-6028,-2608,
1501307063,531,Enabled,MagRatePitch,None,True,True,True,False,True,True,False,False,False,False,False,False,False,False,False,False,False,False,False,False,False,True,False,False,False,True,False,False,False,False,False,False,False,True,False,False,False,False,False,False,0,-64.57,0,0.77,1.86,-1.53,22780,11320,-38970,-0.147674560546875,0.96826171875,-0.20159912109375,0,1.23,0,21,3,4,103,15,24,-16454,-6373,-2610,
1501307064,531,Enabled,MagRatePitch,None,True,True,True,False,True,True,False,False,False,False,False,False,False,False,False,False,False,False,False,False,False,True,False,False,False,True,False,False,False,False,False,False,False,True,False,False,False,False,False,False,0,-63.57,0,0.79,1.83,-1.52,23610,11360,-38520,-0.13824462890625,0.97015380859375,-0.19915771484375,0,1.23,0,21,3,4,103,14,23,-16241,-6739,-2643,
1501307065,531,Enabled,MagRatePitch,None,True,True,True,False,True,True,False,False,False,False,False,False,False,False,False,False,False,False,False,False,False,True,False,False,False,True,False,False,False,False,False,False,False,True,False,False,False,False,False,False,0,-62.59,0,0.81,1.8,-1.49,24370,11360,-38070,-0.13140869140625,0.971527099609375,-0.197113037109375,0,1.23,0,21,3,4,103,14,22,-16028,-7074,-2658,
1501307066,531,Enabled,MagRatePitch,None,True,True,True,False,True,True,False,False,False,False,False,False,False,False,False,False,False,False,False,False,False,True,False,False,False,True,False,False,False,False,False,False,False,True,False,False,False,False,False,False,0,-61.59,0,0.83,1.76,-1.46,25170,11380,-37610,-0.117645263671875,0.97412109375,-0.19293212890625,0,1.23,0,20,3,4,103,12,20,-15805,-7430,-2681,
1501307067,531,Enabled,MagRatePitch,None,True,True,True,False,True,True,False,False,False,False,False,False,False,False,False,False,False,False,False,False,False,True,False,False,False,True,False,False,False,False,False,False,False,True,False,False,False,False,False,False,0,-60.62,0,0.86,1.73,-1.43,25920,11390,-37140,-0.112823486328125,0.97564697265625,-0.18804931640625,0,1.23,0,20,3,4,103,12,18,-15587,-7759,-2696,
